,,88,47,327,,65,43,148,*60
$GLGSV,3,2,10,78,27,269,,79,22,314,,71,15,027,,77,10,221,*6D
$GLGSV,3,3,10,86,08,094,,81,07,295,,,,,,,,,*6F
$GPGLL,4046.35185,N,01447.42800,E,140351.000,V,N*47
$PSTMCPU,26.86,-1,49*45
$GPRMC,140352.000,V,4046.35185,N,01447.42800,E,0.0,0.0,120718,,,N*7E
$GPGGA,140352.000,4046.35185,N,01447.42800,E,0,00,99.0,313.07,M,0.0,M,,*6E
$GPVTG,0.0,T,,M,0.0,N,0.0,K,N*02
$GNGSA,A,1,,,,,,,,,,,,,99.0,99.0,99.0*1E
$GNGSA,A,1,,,,,,,,,,,,,99.0,99.0,99.0*1E
$GPGSV,3,1,09,27,73,331,,10,71,119,,20,53,061,,16,48,205,*73
$GPGSV,3,2,09,08,35,310,,21,30,065,,26,24,185,,18,16,264,*7E
$GPGSV,3,3,09,15,08,042,,,,,,,,,,,,,*4A
$GLGSV,3,1,10,87,53,050,,72,50,071,,88,47,327,,65,43,148,*60
$GLGSV,3,2,10,78,27,269,,79,22,314,,71,15,027,,77,10,221,*6D
$GLGSV,3,3,10,86,08,094,,81,07,295,,,,,,,,,*6F
$GPGLL,4046.35185,N,01447.42800,E,140352.000,V,N*44
$PSTMCPU,20.53,-1,49*4B
$GPRMC,140353.000,V,4046.35185,N,01447.42800,E,0.0,0.0,120718,,,N*7F
$GPGGA,140353.000,4046.35185,N,01447.42800,E,0,00,99.0,313.07,M,0.0,M,,*6F
$GPVTG,0.0,T,,M,0.0,N,0.0,K,N*02
$GNGSA,A,1,,,,,,,,,,,,,99.0,99.0,99.0*1E
$GNGSA,A,1,,,,,,,,,,,,,99.0,99.0,99.0*1E
$GPGSV,3,1,09,27,73,331,,10,71,119,,20,53,061,,16,48,205,*73
$GPGSV,3,2,09,08,35,310,,21,30,065,,26,24,185,,18,16,264,*7E
$GPGSV,3,3,09,15,08,042,,,,,,,,,,,,,*4A
$GLGSV,3,1,10,87,53,050,,72,50,071,,88,47,327,,65,43,148,*60
$GLGSV,3,2,10,78,27,269,,79,22,314,,71,15,027,,77,10,221,*6D
$GLGSV,3,3,10,86,08,094,,81,07,295,,,,,,,,,*6F
$GPGLL,4046.35185,N,01447.42800,E,140353.000,V,N*45
$PSTMCPU,22.85,-1,49*42
$GPRMC,140354.000,V,4046.35185,N,01447.42800,E,0.0,0.0,120718,,,N*78
$GPGGA,140354.000,4046.35185,N,01447.42800,E,0,00,99.0,313.07,M,0.0,M,,*68
$GPVTG,0.0,T,,M,0.0,N,0.0,K,N*02
$GNGSA,A,1,,,,,,,,,,,,,99.0,99.0,99.0*1E
$GNGSA,A,1,,,,,,,,,,,,,99.0,99.0,99.0*1E
$GPGSV,3,1,09,27,73,331,,10,71,119,,20,53,061,,16,48,205,*73
$GPGSV,3,2,09,08,35,310,,21,30,065,,26,24,185,,18,16,264,*7E
$GPGSV,3,3,09,15,08,042,,,,,,,,,,,,,*4A
$GLGSV,3,1,10,87,53,050,,72,50,071,,88,47,327,,65,43,148,*60
$GLGSV,3,2,10,78,27,269,,79,22,314,,71,15,027,,77,10,221,*6D
$GLGSV,3,3,10,86,08,094,,81,07,295,,,,,,,,,*6F
$GPGLL,4046.35185,N,01447.42800,E,140354.000,V,N*42
$PSTMCPU,25.11,-1,49*48
$GPRMC,140355.000,V,4046.35185,N,01447.42800,E,0.0,0.0,120718,,,N*79
$GPGGA,140355.000,4046.35185,N,01447.42800,E,0,00,99.0,313.07,M,0.0,M,,*69
$GPVTG,0.0,T,,M,0.0,N,0.0,K,N*02
$GNGSA,A,1,,,,,,,,,,,,,99.0,99.0,99.0*1E
$GNGSA,A,1,,,,,,,,,,,,,99.0,99.0,99.0*1E
$GPGSV,3,1,09,27,73,331,,10,71,119,,20,53,061,,16,48,205,*73
$GPGSV,3,2,09,08,35,310,,21,30,065,,26,24,185,,18,16,264,*7E
$GPGSV,3,3,09,15,08,042,,,,,,,,,,,,,*4A
$GLGSV,3,1,10,87,53,050,,72,50,071,,88,47,327,,65,43,148,*60
$GLGSV,3,2,10,78,27,269,,79,22,314,,71,15,027,,77,10,221,*6D
$GLGSV,3,3,10,86,08,094,,81,07,295,,,,,,,,,*6F
$GPGLL,4046.35185,N,01447.42800,E,140355.000,V,N*43
$PSTMCPU,29.05,-1,49*41
$GPRMC,140356.000,V,4046.35185,N,01447.42800,E,0.0,0.0,120718,,,N*7A
$GPGGA,140356.000,4046.35185,N,01447.42800,E,0,00,99.0,313.07,M,0.0,M,,*6A
$GPVTG,0.0,T,,M,0.0,N,0.0,K,N*02
$GNGSA,A,1,,,,,,,,,,,,,99.0,99.0,99.0*1E
$GNGSA,A,1,,,,,,,,,,,,,99.0,99.0,99.0*1E
$GPGSV,3,1,09,27,73,331,,10,71,119,,20,53,061,,16,48,205,*73
$GPGSV,3,2,09,08,35,310,,21,30,065,,26,24,185,,18,16,264,*7E
$GPGSV,3,3,09,15,08,042,,,,,,,,,,,,,*4A
$GLGSV,3,1,10,87,53,050,,72,50,071,,88,47,327,,65,43,148,*60
$GLGSV,3,2,10,78,27,269,,79,22,314,,71,15,027,,77,10,221,*6D
$GLGSV,3,3,10,86,08,094,,81,07,295,,,,,,,,,*6F
$GPGLL,4046.35185,N,01447.42800,E,140356.000,V,N*40
$PSTMCPU,19.77,-1,49*47
$GPRMC,140357.000,V,4046.35185,N,01447.42800,E,0.0,0.0,120718,,,N*7B
$GPGGA,140357.000,4046.35185,N,01447.42800,E,0,00,99.0,313.07,M,0.0,M,,*6B
$GPVTG,0.0,T,,M,0.0,N,0.0,K,N*02
$GNGSA,A,1,,,,,,,,,,,,,99.0,99.0,99.0*1E
$GNGSA,A,1,,,,,,,,,,,,,99.0,99.0,99.0*1E
$GPGSV,3,1,09,27,73,331,,10,71,119,,20,53,061,,16,48,205,*73
$GPGSV,3,2,09,08,35,310,,21,30,065,,26,24,185,,18,16,264,*7E
$GPGSV,3,3,09,15,08,042,,,,,,,,,,,,,*4A
$GLGSV,3,1,10,87,53,050,,72,50,071,,88,47,327,,65,43,148,*60
$GLGSV,3,2,10,78,27,269,,79,22,314,,71,15,027,,77,10,221,*6D
$GLGSV,3,3,10,86,08,094,,81,07,295,,,,,,,,,*6F
$GPGLL,4046.35185,N,01447.42800,E,140357.000,V,N*41
$PSTMCPU,22.86,-1,49*41
$GPRMC,140358.000,V,4046.35185,N,01447.42800,E,0.0,0.0,120718,,,N*74
$GPGGA,140358.000,4046.35185,N,01447.42800,E,0,00,99.0,313.07,M,0.0,M,,*64
$GPVTG,0.0,T,,M,0.0,N,0.0,K,N*02
$GNGSA,A,1,,,,,,,,,,,,,99.0,99.0,99.0*1E
$GNGSA,A,1,,,,,,,,,,,,,99.0,99.0,99.0*1E
$GPGSV,3,1,10,27,73,331,,10,71,119,,20,53,061,,16,48,205,*7B
$GPGSV,3,2,10,08,35,310,,21,30,065,,26,24,185,,18,16,264,*76
$GPGSV,3,3,10,32,10,143,,15,08,042,,,,,,,,,*74
$GLGSV,3,1,10,87,53,050,,72,50,071,,88,47,327,,65,43,148,*60
$GLGSV,3,2,10,78,27,269,,79,22,314,,71,15,027,,77,10,221,*6D
$GLGSV,3,3,10,86,08,094,,81,07,295,,,,,,,,,*6F
$GPGLL,4046.35185,N,01447.42800,E,140358.000,V,N*4E
$PSTMCPU,18.77,-1,49*46
$GPRMC,140359.000,V,4046.35185,N,01447.42800,E,0.0,0.0,120718,,,N*75
$GPGGA,140359.000,4046.35185,N,01447.42800,E,0,00,99.0,313.07,M,0.0,M,,*65
$GPVTG,0.0,T,,M,0.0,N,0.0,K,N*02
$GNGSA,A,1,,,,,,,,,,,,,99.0,99.0,99.0*1E
$GNGSA,A,1,,,,,,,,,,,,,99.0,99.0,99.0*1E
$GPGSV,3,1,10,27,73,331,,10,71,119,,20,53,061,,16,48,205,*7B
$GPGSV,3,2,10,08,35,310,,21,30,065,,26,24,185,,18,16,264,*76
$GPGSV,3,3,10,32,10,143,,15,08,042,,,,,,,,,*74
$GLGSV,3,1,10,87,53,050,,72,50,071,,88,47,327,,65,43,148,*60
$GLGSV,3,2,10,78,27,269,,79,22,314,,71,15,027,,77,10,221,*6D
$GLGSV,3,3,10,86,08,094,,81,07,295,,,,,,,,,*6F
$GPGLL,4046.35185,N,01447.42800,E,140359.000,V,N*4F
$PSTMCPU,36.21,-1,49*49
$GPRMC,140400.000,V,4046.35185,N,01447.42800,E,0.0,0.0,120718,,,N*7E
$GPGGA,140400.000,4046.35185,N,01447.42800,E,0,00,99.0,313.07,M,0.0,M,,*6E
$GPVTG,0.0,T,,M,0.0,N,0.0,K,N*02
$GNGSA,A,1,,,,,,,,,,,,,99.0,99.0,99.0*1E
$GNGSA,A,1,,,,,,,,,,,,,99.0,99.0,99.0*1E
$GPGSV,3,1,10,27,73,331,,10,71,119,,20,53,061,,16,48,205,*7B
$GPGSV,3,2,10,08,35,310,,21,30,065,,26,24,185,,18,16,264,*76
$GPGSV,3,3,10,32,10,143,,15,08,042,,,,,,,,,*74
$GLGSV,3,1,10,87,53,050,,72,50,071,,88,47,327,,65,44,148,*67
$GLGSV,3,2,10,78,27,269,,79,22,314,,71,15,027,,77,10,221,*6D
$GLGSV,3,3,10,86,08,094,,81,07,295,,,,,,,,,*6F
$GPGLL,4046.35185,N,01447.42800,E,140400.000,V,N*44
$PSTMCPU,20.17,-1,49*4B
$GPRMC,140401.000,V,4046.35185,N,01447.42800,E,0.0,0.0,120718,,,N*7F
$GPGGA,140401.000,4046.35185,N,01447.42800,E,0,00,99.0,313.07,M,0.0,M,,*6F
$GPVTG,0.0,T,,M,0.0,N,0.0,K,N*02
$GNGSA,A,1,,,,,,,,,,,,,99.0,99.0,99.0*1E
$GNGSA,A,1,,,,,,,,,,,,,99.0,99.0,99.0*1E
$GPGSV,3,1,10,27,73,331,,10,71,119,,20,53,061,,16,48,205,*7B
$GPGSV,3,2,10,08,35,310,,21,30,065,,26,24,185,,18,16,264,*76
$GPGSV,3,3,10,32,10,143,,15,08,042,,,,,,,,,*74
$GLGSV,3,1,10,87,53,050,,72,50,071,,88,47,327,,65,44,148,*67
$GLGSV,3,2,10,78,27,269,,79,22,314,,71,15,027,,77,10,221,*6D
$GLGSV,3,3,10,86,08,094,,81,07,295,,,,,,,,,*6F
$GPGLL,4046.35185,N,01447.42800,E,140401.000,V,N*45
$PSTMCPU,23.81,-1,49*47
$GPRMC,140402.000,V,4046.35185,N,01447.42800,E,0.0,0.0,120718,,,N*7C
$GPGGA,140402.000,4046.35185,N,01447.42800,E,0,00,99.0,313.07,M,0.0,M,,*6C
$GPVTG,0.0,T,,M,0.0,N,0.0,K,N*02
$GNGSA,A,1,,,,,,,,,,,,,99.0,99.0,99.0*1E
$GNGSA,A,1,,,,,,,,,,,,,99.0,99.0,99.0*1E
$GPGSV,3,1,10,27,73,331,,10,71,119,,20,53,061,,16,48,205,*7B
$GPGSV,3,2,10,08,35,310,,21,30,065,,26,24,185,,18,16,264,*76
$GPGSV,3,3,10,32,10,143,,15,08,042,,,,,,,,,*74
$GLGSV,3,1,10,87,53,050,,72,50,071,,88,47,327,,65,44,148,*67
$GLGSV,3,2,10,78,27,269,,79,22,314,,71,15,027,,77,10,221,*6D
$GLGSV,3,3,10,86,08,094,,81,07,295,,,,,,,,,*6F
$GPGLL,4046.35185,N,01447.42800,E,140402.000,V,N*46
$PSTMCPU,18.92,-1,49*4D
$GPRMC,140403.000,V,4046.35185,N,01447.42800,E,0.0,0.0,120718,,,N*7D
$GPGGA,140403.000,4046.35185,N,01447.42800,E,0,00,99.0,313.07,M,0.0,M,,*6D
$GPVTG,0.0,T,,M,0.0,N,0.0,K,N*02
$GNGSA,A,1,,,,,,,,,,,,,99.0,99.0,99.0*1E
$GNGSA,A,1,,,,,,,,,,,,,99.0,99.0,99.0*1E
$GPGSV,3,1,10,27,73,331,,10,71,119,,20,53,061,,16,48,205,*7B
$GPGSV,3,2,10,08,35,310,,21,30,065,,26,24,185,,18,16,264,*76
$GPGSV,3,3,10,32,10,143,,15,08,042,,,,,,,,,*74
$GLGSV,3,1,10,87,53,050,,72,50,071,,88,47,327,,65,44,148,*67
$GLGSV,3,2,10,78,27,269,,79,22,314,,71,15,027,,77,10,221,*6D
$GLGSV,3,3,10,86,08,094,,81,07,295,,,,,,,,,*6F
$GPGLL,4046.35185,N,01447.42800,E,140403.000,V,N*47
$PSTMCPU,36.08,-1,49*42
$GPRMC,140404.000,V,4046.35185,N,01447.42800,E,0.0,0.0,120718,,,N*7A
$GPGGA,140404.000,4046.35185,N,01447.42800,E,0,00,99.0,313.07,M,0.0,M,,*6A
$GPVTG,0.0,T,,M,0.0,N,0.0,K,N*02
$GNGSA,A,1,,,,,,,,,,,,,99.0,99.0,99.0*1E
$GNGSA,A,1,,,,,,,,,,,,,99.0,99.0,99.0*1E
$GPGSV,3,1,10,27,73,331,,10,71,119,,20,53,061,,16,48,205,*7B
$GPGSV,3,2,10,08,35,310,,21,30,065,,26,24,185,,18,16,264,*76
$GPGSV,3,3,10,32,10,143,,15,08,042,,,,,,,,,*74
$GLGSV,3,1,10,87,53,050,,72,50,071,,88,47,327,,65,44,148,*67
$GLGSV,3,2,10,78,27,269,,79,22,314,,71,15,027,,77,10,221,*6D
$GLGSV,3,3,10,86,08,094,,81,07,295,,,,,,,,,*6F
$GPGLL,4046.35185,N,01447.42800,E,140404.000,V,N*40
$PSTMCPU,25.70,-1,49*4F
$GPRMC,140405.000,V,4046.35185,N,01447.42800,E,0.0,0.0,120718,,,N*7B
$GPGGA,140405.000,4046.35185,N,01447.42800,E,0,00,99.0,313.07,M,0.0,M,,*6B
$GPVTG,0.0,T,,M,0.0,N,0.0,K,N*02
$GNGSA,A,1,,,,,,,,,,,,,99.0,99.0,99.0*1E
$GNGSA,A,1,,,,,,,,,,,,,99.0,99.0,99.0*1E
$GPGSV,3,1,10,27,73,331,,10,71,119,,20,53,061,,16,48,205,*7B
$GPGSV,3,2,10,08,35,310,,21,30,065,,26,24,185,,18,16,264,*76
$GPGSV,3,3,10,32,10,143,,15,08,042,,,,,,,,,*74
$GLGSV,3,1,10,87,53,050,,72,50,071,,88,47,327,,65,44,148,*67
$GLGSV,3,2,10,78,27,269,,79,22,314,,71,15,027,,77,10,221,*6D
$GLGSV,3,3,10,86,08,094,,81,07,295,,,,,,,,,*6F
$GPGLL,4046.35185,N,01447.42800,E,140405.000,V,N*41
$PSTMCPU,22.96,-1,49*40
$GPRMC,140406.000,V,4046.35185,N,01447.42800,E,0.0,0.0,120718,,,N*78
$GPGGA,140406.000,4046.35185,N,01447.42800,E,0,00,99.0,313.07,M,0.0,M,,*68
$GPVTG,0.0,T,,M,0.0,N,0.0,K,N*02
$GNGSA,A,1,,,,,,,,,,,,,99.0,99.0,99.0*1E
$GNGSA,A,1,,,,,,,,,,,,,99.0,99.0,99.0*1E
$GPGSV,3,1,10,27,73,331,,10,71,119,,20,53,061,,16,48,205,*7B
$GPGSV,3,2,10,08,36,310,,21,30,065,,26,24,185,,18,16,264,*75
$GPGSV,3,3,10,32,10,143,,15,08,042,,,,,,,,,*74
$GLGSV,3,1,10,87,53,050,,72,50,071,,88,47,327,,65,44,148,*67
$GLGSV,3,2,10,78,27,269,,79,22,314,,71,15,027,,77,10,221,*6D
$GLGSV,3,3,10,86,08,094,,81,07,295,,,,,,,,,*6F
$GPGLL,4046.35185,N,01447.42800,E,140406.000,V,N*42
$PSTMCPU,20.11,-1,49*4D
$GPRMC,140407.000,V,4046.35185,N,01447.42800,E,0.0,0.0,120718,,,N*79
$GPGGA,140407.000,4046.35185,N,01447.42800,E,0,00,99.0,313.07,M,0.0,M,,*69
$GPVTG,0.0,T,,M,0.0,N,0.0,K,N*02
$GNGSA,A,1,,,,,,,,,,,,,99.0,99.0,99.0*1E
$GNGSA,A,1,,,,,,,,,,,,,99.0,99.0,99.0*1E
$GPGSV,3,1,10,27,73,331,,10,71,119,,20,53,061,,16,48,205,*7B
$GPGSV,3,2,10,08,36,310,,21,30,065,,26,24,185,,18,16,264,*75
$GPGSV,3,3,10,32,10,143,,15,08,042,,,,,,,,,*74
$GLGSV,3,1,10,87,53,050,,72,50,071,,88,47,327,,65,44,148,*67
$GLGSV,3,2,10,78,27,269,,79,22,314,,71,15,027,,77,10,221,*6D
$GLGSV,3,3,10,86,08,094,,81,07,295,,,,,,,,,*6F
$GPGLL,4046.35185,N,01447.42800,E,140407.000,V,N*43
$PSTMCPU,29.19,-1,49*4C
$GPRMC,140408.000,V,4046.35185,N,01447.42800,E,0.0,0.0,120718,,,N*76
$GPGGA,140408.000,4046.35185,N,01447.42800,E,0,00,99.0,313.07,M,0.0,M,,*66
$GPVTG,0.0,T,,M,0.0,N,0.0,K,N*02
$GNGSA,A,1,,,,,,,,,,,,,99.0,99.0,99.0*1E
$GNGSA,A,1,,,,,,,,,,,,,99.0,99.0,99.0*1E
$GPGSV,3,1,10,27,73,331,,10,71,119,,20,53,061,,16,48,205,*7B
$GPGSV,3,2,10,08,36,310,,21,30,065,,26,24,185,,18,16,264,*75
$GPGSV,3,3,10,32,10,143,,15,08,042,,,,,,,,,*74
$GLGSV,3,1,10,87,53,050,,72,50,071,,88,47,327,,65,44,148,*67
$GLGSV,3,2,10,78,27,269,,79,22,314,,71,15,027,,77,10,221,*6D
$GLGSV,3,3,10,86,08,094,,81,07,295,,,,,,,,,*6F
$GPGLL,4046.35185,N,01447.42800,E,140408.000,V,N*4C
$PSTMCPU,20.70,-1,49*4A
$GPRMC,140409.000,V,4046.35185,N,01447.42800,E,0.0,0.0,120718,,,N*77
$GPGGA,140409.000,4046.35185,N,01447.42800,E,0,00,99.0,313.07,M,0.0,M,,*67
$GPVTG,0.0,T,,M,0.0,N,0.0,K,N*02
$GNGSA,A,1,,,,,,,,,,,,,99.0,99.0,99.0*1E
$GNGSA,A,1,,,,,,,,,,,,,99.0,99.0,99.0*1E
$GPGSV,3,1,10,27,73,331,,10,71,119,,20,53,061,,16,48,205,*7B
$GPGSV,3,2,10,08,36,310,,21,30,065,,26,24,185,,18,16,264,*75
$GPGSV,3,3,10,32,10,143,,15,08,042,,,,,,,,,*74
$GLGSV,3,1,10,87,53,050,,72,50,071,,88,47,327,,65,44,148,*67
$GLGSV,3,2,10,78,27,269,,79,22,314,,71,15,027,,77,10,221,*6D
$GLGSV,3,3,10,86,08,094,,81,07,295,,,,,,,,,*6F
$GPGLL,4046.35185,N,01447.42800,E,140409.000,V,N*4D
$PSTMCPU,29.49,-1,49*49
$GPRMC,140410.000,V,4046.35185,N,01447.42800,E,0.0,0.0,120718,,,N*7F
$GPGGA,140410.000,4046.35185,N,01447.42800,E,0,00,99.0,313.07,M,0.0,M,,*6F
$GPVTG,0.0,T,,M,0.0,N,0.0,K,N*02
$GNGSA,A,1,,,,,,,,,,,,,99.0,99.0,99.0*1E
$GNGSA,A,1,,,,,,,,,,,,,99.0,99.0,99.0*1E
$GPGSV,3,1,10,27,73,331,,10,71,117,,20,53,061,,16,48,205,*75
$GPGSV,3,2,10,08,36,310,,21,30,065,,26,24,185,,18,16,264,*75
$GPGSV,3,3,10,32,10,143,,15,08,042,,,,,,,,,*74
$GLGSV,3,1,10,87,53,050,,72,50,071,,88,47,327,,65,44,148,*67
$GLGSV,3,2,10,78,27,269,,79,22,314,,71,15,027,,77,10,221,*6D
$GLGSV,3,3,10,86,08,094,,81,07,295,,,,,,,,,*6F
$GPGLL,4046.35185,N,01447.42800,E,140410.000,V,N*45
$PSTMCPU,20.25,-1,49*4A
$GPRMC,140411.000,V,4046.35185,N,01447.42800,E,0.0,0.0,120718,,,N*7E
$GPGGA,140411.000,4046.35185,N,01447.42800,E,0,00,99.0,313.07,M,0.0,M,,*6E
$GPVTG,0.0,T,,M,0.0,N,0.0,K,N*02
$GNGSA,A,1,,,,,,,,,,,,,99.0,99.0,99.0*1E
$GNGSA,A,1,,,,,,,,,,,,,99.0,99.0,99.0*1E
$GPGSV,3,1,10,27,73,331,,10,71,117,,20,53,061,,16,48,205,*75
$GPGSV,3,2,10,08,36,310,,21,30,065,,26,24,185,,18,16,264,*75
$GPGSV,3,3,10,32,10,143,,15,08,042,,,,,,,,,*74
$GLGSV,3,1,10,87,53,050,,72,50,071,,88,47,327,,65,44,148,*67
$GLGSV,3,2,10,78,27,269,,79,22,314,,71,15,027,,77,10,221,*6D
$GLGSV,3,3,10,86,08,094,,81,07,295,,,,,,,,,*6F
$GPGLL,4046.35185,N,01447.42800,E,140411.000,V,N*44
$PSTMCPU,26.01,-1,49*4A
$GPRMC,140412.000,V,4046.35185,N,01447.42800,E,0.0,0.0,120718,,,N*7D
$GPGGA,140412.000,4046.35185,N,01447.42800,E,0,00,99.0,313.07,M,0.0,M,,*6D
$GPVTG,0.0,T,,M,0.0,N,0.0,K,N*02
$GNGSA,A,1,,,,,,,,,,,,,99.0,99.0,99.0*1E
$GNGSA,A,1,,,,,,,,,,,,,99.0,99.0,99.0*1E
$GPGSV,3,1,10,27,73,331,,10,71,117,,20,53,061,,16,48,205,*75
$GPGSV,3,2,10,08,36,310,,21,30,065,,26,24,185,,18,16,264,*75
$GPGSV,3,3,10,32,10,143,,15,08,042,,,,,,,,,*74
$GLGSV,3,1,10,87,53,050,,72,50,071,,88,47,327,,65,44,148,*67
$GLGSV,3,2,10,78,27,269,,79,22,314,,71,15,027,,77,10,221,*6D
$GLGSV,3,3,10,86,08,094,,81,07,295,,,,,,,,,*6F
$GPGLL,4046.35185,N,01447.42800,E,140412.000,V,N*47
$PSTMCPU,22.91,-1,49*47
$GPRMC,140413.000,V,4046.35185,N,01447.42800,E,0.0,0.0,120718,,,N*7C
$GPGGA,140413.000,4046.35185,N,01447.42800,E,0,00,99.0,313.07,M,0.0,M,,*6C
$GPVTG,0.0,T,,M,0.0,N,0.0,K,N*02
$GNGSA,A,1,,,,,,,,,,,,,99.0,99.0,99.0*1E
$GNGSA,A,1,,,,,,,,,,,,,99.0,99.0,99.0*1E
$GPGSV,3,1,10,27,73,331,,10,71,117,,20,53,061,,16,48,205,*75
$GPGSV,3,2,10,08,36,310,,21,30,065,,26,24,185,,18,16,264,*75
$GPGSV,3,3,10,32,10,143,,15,08,042,,,,,,,,,*74
$GLGSV,3,1,10,87,53,050,,72,50,071,,88,47,327,,65,44,148,*67
$GLGSV,3,2,10,78,27,269,,79,22,314,,71,15,027,,77,10,221,*6D
$GLGSV,3,3,10,86,08,094,,81,07,295,,,,,,,,,*6F
$GPGLL,4046.35185,N,01447.42800,E,140413.000,V,N*46
$PSTMCPU,23.87,-1,49*41
$GPRMC,140414.000,V,4046.35185,N,01447.42800,E,0.0,0.0,120718,,,N*7B
$GPGGA,140414.000,4046.35185,N,01447.42800,E,0,00,99.0,313.07,M,0.0,M,,*6B
$GPVTG,0.0,T,,M,0.0,N,0.0,K,N*02
$GNGSA,A,1,,,,,,,,,,,,,99.0,99.0,99.0*1E
$GNGSA,A,1,,,,,,,,,,,,,99.0,99.0,99.0*1E
$GPGSV,3,1,10,27,73,331,,10,71,117,,20,53,061,,16,48,205,*75
$GPGSV,3,2,10,08,36,310,,21,30,065,,26,24,185,,18,16,264,*75
$GPGSV,3,3,10,32,10,143,,15,08,042,,,,,,,,,*74
$GLGSV,3,1,10,87,53,050,,72,50,071,,88,47,327,,65,44,148,*67
$GLGSV,3,2,10,78,27,269,,79,22,314,,71,15,027,,77,10,221,*6D
$GLGSV,3,3,10,86,08,094,,81,07,295,,,,,,,,,*6F
$GPGLL,4046.35185,N,01447.42800,E,140414.000,V,N*41
$PSTMCPU,23.20,-1,49*4C
$GPRMC,140415.000,V,4046.35185,N,01447.42800,E,0.0,0.0,120718,,,N*7A
$GPGGA,140415.000,4046.35185,N,01447.42800,E,0,00,99.0,313.07,M,0.0,M,,*6A
$GPVTG,0.0,T,,M,0.0,N,0.0,K,N*02
$GNGSA,A,1,,,,,,,,,,,,,99.0,99.0,99.0*1E
$GNGSA,A,1,,,,,,,,,,,,,99.0,99.0,99.0*1E
$GPGSV,3,1,10,27,73,331,,10,71,117,,20,53,061,,16,48,205,*75
$GPGSV,3,2,10,08,36,310,,21,30,065,,26,24,185,,18,16,264,*75
$GPGSV,3,3,10,32,10,143,,15,08,042,,,,,,,,,*74
$GLGSV,3,1,10,87,53,050,,72,50,071,,88,47,327,,65,44,148,*67
$GLGSV,3,2,10,78,27,269,,79,22,314,,71,15,027,,77,10,221,*6D
$GLGSV,3,3,10,86,08,094,,81,07,295,,,,,,,,,*6F
$GPGLL,4046.35185,N,01447.42800,E,140415.000,V,N*40
$PSTMCPU,23.59,-1,49*42
$GPRMC,140416.000,V,4046.35185,N,01447.42800,E,0.0,0.0,120718,,,N*79
$GPGGA,140416.000,4046.35185,N,01447.42800,E,0,00,99.0,313.07,M,0.0,M,,*69
$GPVTG,0.0,T,,M,0.0,N,0.0,K,N*02
$GNGSA,A,1,,,,,,,,,,,,,99.0,99.0,99.0*1E
$GNGSA,A,1,,,,,,,,,,,,,99.0,99.0,99.0*1E
$GPGSV,3,1,10,27,73,331,,10,71,117,,20,53,061,,16,48,205,*75
$GPGSV,3,2,10,08,36,310,,21,30,065,,26,24,185,,18,16,264,*75
$GPGSV,3,3,10,32,10,143,,15,08,042,,,,,,,,,*74
$GLGSV,3,1,10,87,53,050,,72,50,071,,88,47,327,,65,44,148,*67
$GLGSV,3,2,10,78,27,269,,79,22,314,,71,15,027,,77,10,221,*6D
$GLGSV,3,3,10,86,08,094,,81,07,295,,,,,,,,,*6F
$GPGLL,4046.35185,N,01447.42800,E,140416.000,V,N*43
$PSTMCPU,27.14,-1,49*4F
$GPRMC,140417.000,V,4046.35185,N,01447.42800,E,0.0,0.0,120718,,,N*78
$GPGGA,140417.000,4046.35185,N,01447.42800,E,0,00,99.0,313.07,M,0.0,M,,*68
$GPVTG,0.0,T,,M,0.0,N,0.0,K,N*02
$GNGSA,A,1,,,,,,,,,,,,,99.0,99.0,99.0*1E
$GNGSA,A,1,,,,,,,,,,,,,99.0,99.0,99.0*1E
$GPGSV,3,1,10,27,73,331,,10,71,117,,20,53,061,,16,48,205,*75
$GPGSV,3,2,10,08,36,310,,21,30,065,,26,24,185,,18,16,264,*75
$GPGSV,3,3,10,32,10,143,,15,08,042,,,,,,,,,*74
$GLGSV,3,1,10,87,53,050,,72,50,071,,88,47,327,,65,44,148,*67
$GLGSV,3,2,10,78,27,269,,79,22,314,,71,15,027,,77,10,221,*6D
$GLGSV,3,3,10,86,08,094,,81,07,295,,,,,,,,,*6F
$GPGLL,4046.35185,N,01447.42800,E,140417.000,V,N*42
$PSTMCPU,21.40,-1,49*48
$GPRMC,140418.000,V,4046.35185,N,01447.42800,E,0.0,0.0,120718,,,N*77
$GPGGA,140418.000,4046.35185,N,01447.42800,E,0,00,99.0,313.07,M,0.0,M,,*67
$GPVTG,0.0,T,,M,0.0,N,0.0,K,N*02
$GNGSA,A,1,,,,,,,,,,,,,99.0,99.0,99.0*1E
$GNGSA,A,1,,,,,,,,,,,,,99.0,99.0,99.0*1E
$GPGSV,3,1,10,27,73,331,,10,71,117,,20,53,061,,16,48,205,*75
$GPGSV,3,2,10,08,36,310,,21,30,065,,26,24,185,,18,16,264,*75
$GPGSV,3,3,10,32,10,143,,15,08,042,,,,,,,,,*74
$GLGSV,3,1,10,87,53,050,,72,50,071,,88,47,327,,65,44,148,*67
$GLGSV,3,2,10,78,27,269,,79,22,314,,71,15,027,,77,10,221,*6D
$GLGSV,3,3,10,86,08,094,,81,07,295,,,,,,,,,*6F
$GPGLL,4046.35185,N,01447.42800,E,140418.000,V,N*4D
$PSTMCPU,20.17,-1,49*4B
$GPRMC,140419.000,V,4046.35185,N,01447.42800,E,0.0,0.0,120718,,,N*76
$GPGGA,140419.000,4046.35185,N,01447.42800,E,0,00,99.0,313.07,M,0.0,M,,*66
$GPVTG,0.0,T,,M,0.0,N,0.0,K,N*02
$GNGSA,A,1,,,,,,,,,,,,,99.0,99.0,99.0*1E
$GNGSA,A,1,,,,,,,,,,,,,99.0,99.0,99.0*1E
$GPGSV,3,1,10,27,73,331,,10,71,117,,20,53,061,,16,48,205,*75
$GPGSV,3,2,10,08,36,310,,21,30,065,,26,24,185,,18,16,264,*75
$GPGSV,3,3,10,32,10,143,,15,08,042,,,,,,,,,*74
$GLGSV,3,1,10,87,53,050,,72,50,071,,88,47,327,,65,44,148,*67
$GLGSV,3,2,10,78,27,269,,79,22,314,,71,15,027,,77,10,221,*6D
$GLGSV,3,3,10,86,08,094,,81,07,295,,,,,,,,,*6F
$GPGLL,4046.35185,N,01447.42800,E,140419.000,V,N*4C
$PSTMCPU,26.06,-1,49*4D
$GPRMC,140420.000,V,4046.35185,N,01447.42800,E,0.0,0.0,120718,,,N*7C
$GPGGA,140420.000,4046.35185,N,01447.42800,E,0,00,99.0,313.07,M,0.0,M,,*6C
$GPVTG,0.0,T,,M,0.0,N,0.0,K,N*02
$GNGSA,A,1,,,,,,,,,,,,,99.0,99.0,99.0*1E
$GNGSA,A,1,,,,,,,,,,,,,99.0,99.0,99.0*1E
$GPGSV,3,1,10,27,73,331,,10,71,117,,20,53,061,,16,48,205,*75
$GPGSV,3,2,10,08,36,310,,21,30,065,,26,24,185,,18,16,264,*75
$GPGSV,3,3,10,32,10,143,,15,08,042,,,,,,,,,*74
$GLGSV,3,1,10,87,53,050,,72,50,071,,88,47,327,,65,44,148,*67
$GLGSV,3,2,10,78,27,269,,79,22,314,,71,15,027,,77,10,221,*6D
$GLGSV,3,3,10,86,08,094,,81,07,295,,,,,,,,,*6F
$GPGLL,4046.35185,N,01447.42800,E,140420.000,V,N*46
$PSTMCPU,30.90,-1,49*45
$GPRMC,140421.000,V,4046.35185,N,01447.42800,E,0.0,0.0,120718,,,N*7D
$GPGGA,140421.000,4046.35185,N,01447.42800,E,0,00,99.0,313.07,M,0.0,M,,*6D
$GPVTG,0.0,T,,M,0.0,N,0.0,K,N*02
$GNGSA,A,1,,,,,,,,,,,,,99.0,99.0,99.0*1E
$GNGSA,A,1,,,,,,,,,,,,,99.0,99.0,99.0*1E
$GPGSV,3,1,10,27,73,331,,10,71,117,,20,53,061,,16,48,205,*75
$GPGSV,3,2,10,08,36,310,,21,30,065,,26,24,185,,18,16,264,*75
$GPGSV,3,3,10,32,10,143,,15,08,042,,,,,,,,,*74
$GLGSV,3,1,10,87,53,050,,72,50,071,,88,47,327,,65,44,148,*67
$GLGSV,3,2,10,78,27,269,,79,22,314,,71,15,027,,77,10,221,*6D
$GLGSV,3,3,10,86,08,094,,81,07,295,,,,,,,,,*6F
$GPGLL,4046.35185,N,01447.42800,E,140421.000,V,N*47
$PSTMCPU,23.54,-1,49*4F
$GPRMC,140422.000,V,4046.35185,N,01447.42800,E,0.0,0.0,120718,,,N*7E
$GPGGA,140422.000,4046.35185,N,01447.42800,E,0,00,99.0,313.07,M,0.0,M,,*6E
$GPVTG,0.0,T,,M,0.0,N,0.0,K,N*02
$GNGSA,A,1,,,,,,,,,,,,,99.0,99.0,99.0*1E
$GNGSA,A,1,,,,,,,,,,,,,99.0,99.0,99.0*1E
$GPGSV,3,1,10,27,73,331,,10,71,117,,20,53,061,,16,48,205,*75
$GPGSV,3,2,10,08,36,310,,21,30,065,,26,24,185,,18,16,264,*75
$GPGSV,3,3,10,32,10,143,,15,08,042,,,,,,,,,*74
$GLGSV,3,1,10,87,53,050,,72,50,071,,88,47,327,,65,44,148,*67
$GLGSV,3,2,10,78,27,269,,79,22,314,,71,15,027,,77,09,221,*65
$GLGSV,3,3,10,86,08,094,,81,07,295,,,,,,,,,*6F
$GPGLL,4046.35185,N,01447.42800,E,140422.000,V,N*44
$PSTMCPU,20.17,-1,49*4B
$GPRMC,140423.000,V,4046.35185,N,01447.42800,E,0.0,0.0,120718,,,N*7F
$GPGGA,140423.000,4046.35185,N,01447.42800,E,0,00,99.0,313.07,M,0.0,M,,*6F
$GPVTG,0.0,T,,M,0.0,N,0.0,K,N*02
$GNGSA,A,1,,,,,,,,,,,,,99.0,99.0,99.0*1E
$GNGSA,A,1,,,,,,,,,,,,,99.0,99.0,99.0*1E
$GPGSV,3,1,10,27,73,331,,10,71,117,,20,53,061,,16,48,205,*75
$GPGSV,3,2,10,08,36,310,,21,30,065,,26,24,185,,18,16,264,*75
$GPGSV,3,3,10,32,10,143,,15,08,042,,,,,,,,,*74
$GLGSV,3,1,10,87,53,050,,72,50,071,,88,47,327,,65,44,148,*67
$GLGSV,3,2,10,78,27,269,,79,22,314,,71,15,027,,77,09,221,*65
$GLGSV,3,3,10,86,08,094,,81,07,295,,,,,,,,,*6F
$GPGLL,4046.35185,N,01447.42800,E,140423.000,V,N*45
$PSTMCPU,22.99,-1,49*4F
$GPRMC,140424.000,V,4046.35185,N,01447.42800,E,0.0,0.0,120718,,,N*78
$GPGGA,140424.000,4046.35185,N,01447.42800,E,0,00,99.0,313.07,M,0.0,M,,*68
$GPVTG,0.0,T,,M,0.0,N,0.0,K,N*02
$GNGSA,A,1,,,,,,,,,,,,,99.0,99.0,99.0*1E
$GNGSA,A,1,,,,,,,,,,,,,99.0,99.0,99.0*1E
$GPGSV,3,1,10,27,73,331,,10,71,117,,20,53,061,,16,48,205,*75
$GPGSV,3,2,10,08,36,310,,21,30,065,,26,24,185,,18,16,264,*75
$GPGSV,3,3,10,32,10,143,,15,08,042,,,,,,,,,*74
$GLGSV,3,1,10,87,53,050,,72,50,071,,88,47,327,,65,44,148,*67
$GLGSV,3,2,10,78,27,269,,79,22,314,,71,15,027,,77,09,221,*65
$GLGSV,3,3,10,86,08,094,,81,07,295,,,,,,,,,*6F
$GPGLL,4046.35185,N,01447.42800,E,140424.000,V,N*42
$PSTMCPU,18.95,-1,49*4A
$GPRMC,140425.000,V,4046.35185,N,01447.42800,E,0.0,0.0,120718,,,N*79
$GPGGA,140425.000,4046.35185,N,01447.42800,E,0,00,99.0,313.07,M,0.0,M,,*69
$GPVTG,0.0,T,,M,0.0,N,0.0,K,N*02
$GNGSA,A,1,,,,,,,,,,,,,99.0,99.0,99.0*1E
$GNGSA,A,1,,,,,,,,,,,,,99.0,99.0,99.0*1E
$GPGSV,3,1,10,27,73,331,,10,71,117,,20,53,061,,16,48,205,*75
$GPGSV,3,2,10,08,36,310,,21,30,065,,26,24,185,,18,16,264,*75
$GPGSV,3,3,10,32,10,143,,15,08,042,,,,,,,,,*74
$GLGSV,3,1,10,87,53,050,,72,50,071,,88,47,327,,65,44,148,*67
$GLGSV,3,2,10,78,27,269,,79,22,314,,71,15,027,,77,09,221,*65
$GLGSV,3,3,10,86,08,094,,81,07,295,,,,,,,,,*6F
$GPGLL,4046.35185,N,01447.42800,E,140425.000,V,N*43
$PSTMCPU,37.05,-1,49*4E
$GPRMC,140426.000,V,4046.35185,N,01447.42800,E,0.0,0.0,120718,,,N*7A
$GPGGA,140426.000,4046.35185,N,01447.42800,E,0,00,99.0,313.07,M,0.0,M,,*6A
$GPVTG,0.0,T,,M,0.0,N,0.0,K,N*02
$GNGSA,A,1,,,,,,,,,,,,,99.0,99.0,99.0*1E
$GNGSA,A,1,,,,,,,,,,,,,99.0,99.0,99.0*1E
$GPGSV,3,1,10,27,73,331,,10,71,117,,20,53,061,,16,48,205,*75
$GPGSV,3,2,10,08,36,310,,21,30,065,,26,24,185,,18,16,264,*75
$GPGSV,3,3,10,32,10,143,,15,08,042,,,,,,,,,*74
$GLGSV,3,1,10,87,53,050,,72,50,071,,88,47,327,,65,44,148,*67
$GLGSV,3,2,10,78,27,269,,79,22,314,,71,15,027,,77,09,221,*65
$GLGSV,3,3,10,86,08,094,,81,07,295,,,,,,,,,*6F
$GPGLL,4046.35185,N,01447.42800,E,140426.000,V,N*40
$PSTMCPU,18.98,-1,49*47
$GPRMC,140427.000,V,4046.35185,N,01447.42800,E,0.0,0.0,120718,,,N*7B
$GPGGA,140427.000,4046.35185,N,01447.42800,E,0,00,99.0,313.07,M,0.0,M,,*6B
$GPVTG,0.0,T,,M,0.0,N,0.0,K,N*02
$GNGSA,A,1,,,,,,,,,,,,,99.0,99.0,99.0*1E
$GNGSA,A,1,,,,,,,,,,,,,99.0,99.0,99.0*1E
$GPGSV,3,1,10,27,73,331,,10,71,117,,20,53,061,,16,48,205,*75
$GPGSV,3,2,10,08,36,310,,21,30,065,,26,24,185,,18,16,264,*75
$GPGSV,3,3,10,32,10,143,,15,08,042,,,,,,,,,*74
$GLGSV,3,1,10,87,53,050,,72,50,071,,88,47,327,,65,44,148,*67
$GLGSV,3,2,10,78,27,269,,79,22,314,,71,15,027,,77,09,221,*65
$GLGSV,3,3,10,86,08,094,,81,07,295,,,,,,,,,*6F
$GPGLL,4046.35185,N,01447.42800,E,140427.000,V,N*41
$PSTMCPU,22.95,-1,49*43
$GPRMC,140428.000,V,4046.35185,N,01447.42800,E,0.0,0.0,120718,,,N*74
$GPGGA,140428.000,4046.35185,N,01447.42800,E,0,00,99.0,313.07,M,0.0,M,,*64
$GPVTG,0.0,T,,M,0.0,N,0.0,K,N*02
$GNGSA,A,1,,,,,,,,,,,,,99.0,99.0,99.0*1E
$GNGSA,A,1,,,,,,,,,,,,,99.0,99.0,99.0*1E
$GPGSV,3,1,10,27,73,331,,10,71,117,,20,53,061,,16,48,205,*75
$GPGSV,3,2,10,08,36,310,,21,30,065,,26,24,185,,18,16,264,*75
$GPGSV,3,3,10,32,10,143,,15,08,042,,,,,,,,,*74
$GLGSV,3,1,10,87,53,050,,72,50,071,,88,47,327,,65,44,148,*67
$GLGSV,3,2,10,78,27,269,,79,22,314,,71,15,027,,77,09,221,*65
$GLGSV,3,3,10,86,08,094,,81,07,295,,,,,,,,,*6F
$GPGLL,4046.35185,N,01447.42800,E,140428.000,V,N*4E
$PSTMCPU,20.08,-1,49*45
$GPRMC,140429.000,V,4046.35185,N,01447.42800,E,0.0,0.0,120718,,,N*75
$GPGGA,140429.000,4046.35185,N,01447.42800,E,0,00,99.0,313.07,M,0.0,M,,*65
$GPVTG,0.0,T,,M,0.0,N,0.0,K,N*02
$GNGSA,A,1,,,,,,,,,,,,,99.0,99.0,99.0*1E
$GNGSA,A,1,,,,,,,,,,,,,99.0,99.0,99.0*1E
$GPGSV,3,1,10,27,73,331,,10,71,117,,20,53,061,,16,48,205,*75
$GPGSV,3,2,10,08,36,310,,21,30,065,,26,24,185,,18,16,264,*75
$GPGSV,3,3,10,32,10,143,,15,08,042,,,,,,,,,*74
$GLGSV,3,1,10,87,53,050,,72,50,071,,88,47,327,,65,44,148,*67
$GLGSV,3,2,10,78,27,269,,79,22,314,,71,15,027,,77,09,221,*65
$GLGSV,3,3,10,86,08,094,,81,07,295,,,,,,,,,*6F
$GPGLL,4046.35185,N,01447.42800,E,140429.000,V,N*4F
$PSTMCPU,31.46,-1,49*4F
$GPRMC,140430.000,V,4046.35185,N,01447.42800,E,0.0,0.0,120718,,,N*7D
$GPGGA,140430.000,4046.35185,N,01447.42800,E,0,00,99.0,313.07,M,0.0,M,,*6D
$GPVTG,0.0,T,,M,0.0,N,0.0,K,N*02
$GNGSA,A,1,,,,,,,,,,,,,99.0,99.0,99.0*1E
$GNGSA,A,1,,,,,,,,,,,,,99.0,99.0,99.0*1E
$GPGSV,3,1,10,27,73,331,,10,71,117,,20,53,061,,16,48,205,*75
$GPGSV,3,2,10,08,36,310,,21,30,065,,26,24,185,,18,16,264,*75
$GPGSV,3,3,10,32,10,143,,15,08,042,,,,,,,,,*74
$GLGSV,3,1,10,87,53,050,,72,50,071,,88,47,327,,65,44,148,*67
$GLGSV,3,2,10,78,27,269,,79,22,314,,71,15,027,,77,09,221,*65
$GLGSV,3,3,10,86,08,094,,81,07,295,,,,,,,,,*6F
$GPGLL,4046.35185,N,01447.42800,E,140430.000,V,N*47
$PSTMCPU,25.30,-1,49*4B
$GPRMC,140431.000,V,4046.35185,N,01447.42800,E,0.0,0.0,120718,,,N*7C
$GPGGA,140431.000,4046.35185,N,01447.42800,E,0,00,99.0,313.07,M,0.0,M,,*6C
$GPVTG,0.0,T,,M,0.0,N,0.0,K,N*02
$GNGSA,A,1,,,,,,,,,,,,,99.0,99.0,99.0*1E
$GNGSA,A,1,,,,,,,,,,,,,99.0,99.0,99.0*1E
$GPGSV,3,1,10,27,73,331,,10,71,117,,20,53,061,,16,48,205,*75
$GPGSV,3,2,10,08,36,310,,21,30,065,,26,24,185,,18,16,264,*75
$GPGSV,3,3,10,32,10,143,,15,08,042,,,,,,,,,*74
$GLGSV,3,1,10,87,53,050,,72,50,071,,88,47,327,,65,44,148,*67
$GLGSV,3,2,10,78,27,269,,79,22,314,,71,15,027,,77,09,221,*65
$GLGSV,3,3,10,86,08,094,,81,07,295,,,,,,,,,*6F
$GPGLL,4046.35185,N,01447.42800,E,140431.000,V,N*46
$PSTMCPU,23.79,-1,49*40
$GPRMC,140432.000,V,4046.35185,N,01447.42800,E,0.0,0.0,120718,,,N*7F
$GPGGA,140432.000,4046.35185,N,01447.42800,E,0,00,99.0,313.07,M,0.0,M,,*6F
$GPVTG,0.0,T,,M,0.0,N,0.0,K,N*02
$GNGSA,A,1,,,,,,,,,,,,,99.0,99.0,99.0*1E
$GNGSA,A,1,,,,,,,,,,,,,99.0,99.0,99.0*1E
$GPGSV,3,1,10,27,73,331,,10,71,117,,20,53,061,,16,48,205,*75
$GPGSV,3,2,10,08,36,310,,21,30,066,,26,24,185,,18,16,264,*76
$GPGSV,3,3,10,32,10,143,,15,08,042,,,,,,,,,*74
$GLGSV,3,1,10,87,53,051,,72,50,071,,88,47,327,,65,44,148,*66
$GLGSV,3,2,10,78,27,269,,79,22,314,,71,15,027,,77,09,221,*65
$GLGSV,3,3,10,86,08,094,,81,07,295,,,,,,,,,*6F
$GPGLL,4046.35185,N,01447.42800,E,140432.000,V,N*45
$PSTMCPU,18.99,-1,49*46
$GPRMC,140433.000,V,4046.35185,N,01447.42800,E,0.0,0.0,120718,,,N*7E
$GPGGA,140433.000,4046.35185,N,01447.42800,E,0,00,99.0,313.07,M,0.0,M,,*6E
$GPVTG,0.0,T,,M,0.0,N,0.0,K,N*02
$GNGSA,A,1,,,,,,,,,,,,,99.0,99.0,99.0*1E
$GNGSA,A,1,,,,,,,,,,,,,99.0,99.0,99.0*1E
$GPGSV,3,1,10,27,73,331,,10,71,117,,20,53,061,,16,48,205,*75
$GPGSV,3,2,10,08,36,310,,21,30,066,,26,24,185,,18,16,264,*76
$GPGSV,3,3,10,32,10,143,,15,08,042,,,,,,,,,*74
$GLGSV,3,1,10,87,53,051,,72,50,071,,88,47,327,,65,44,148,*66
$GLGSV,3,2,10,78,27,269,,79,22,314,,71,15,027,,77,09,221,*65
$GLGSV,3,3,10,86,08,094,,81,07,295,,,,,,,,,*6F
$GPGLL,4046.35185,N,01447.42800,E,140433.000,V,N*44
$PSTMCPU,27.84,-1,49*46
$GPRMC,140434.000,V,4046.35185,N,01447.42800,E,0.0,0.0,120718,,,N*79
$GPGGA,140434.000,4046.35185,N,01447.42800,E,0,00,99.0,313.07,M,0.0,M,,*69
$GPVTG,0.0,T,,M,0.0,N,0.0,K,N*02
$GNGSA,A,1,,,,,,,,,,,,,99.0,99.0,99.0*1E
$GNGSA,A,1,,,,,,,,,,,,,99.0,99.0,99.0*1E
$GPGSV,3,1,10,27,73,331,,10,71,117,,20,53,061,,16,48,205,*75
$GPGSV,3,2,10,08,36,310,,21,30,066,,26,24,185,,18,16,264,*76
$GPGSV,3,3,10,32,10,143,,15,08,042,,,,,,,,,*74
$GLGSV,3,1,10,87,53,051,,72,50,071,,88,47,327,,65,44,148,*66
$GLGSV,3,2,10,78,27,269,,79,22,314,,71,15,027,,77,09,221,*65
$GLGSV,3,3,10,86,08,094,,81,07,295,,,,,,,,,*6F
$GPGLL,4046.35185,N,01447.42800,E,140434.000,V,N*43
$PSTMCPU,20.92,-1,49*46
$GPRMC,140435.000,V,4046.35185,N,01447.42800,E,0.0,0.0,120718,,,N*78
$GPGGA,140435.000,4046.35185,N,01447.42800,E,0,00,99.0,313.07,M,0.0,M,,*68
$GPVTG,0.0,T,,M,0.0,N,0.0,K,N*02
$GNGSA,A,1,,,,,,,,,,,,,99.0,99.0,99.0*1E
$GNGSA,A,1,,,,,,,,,,,,,99.0,99.0,99.0*1E
$GPGSV,3,1,10,27,73,331,,10,71,117,,20,53,061,,16,48,205,*75
$GPGSV,3,2,10,08,36,310,,21,30,066,,26,24,185,,18,16,264,*76
$GPGSV,3,3,10,32,10,143,,15,08,042,,,,,,,,,*74
$GLGSV,3,1,10,87,53,051,,72,50,071,,88,47,327,,65,44,148,*66
$GLGSV,3,2,10,78,27,269,,79,22,314,,71,15,027,,77,09,221,*65
$GLGSV,3,3,10,86,08,094,,81,07,295,,,,,,,,,*6F
$GPGLL,4046.35185,N,01447.42800,E,140435.000,V,N*42
$PSTMCPU,28.40,-1,49*41
$GPRMC,140436.000,V,4046.35185,N,01447.42800,E,0.0,0.0,120718,,,N*7B
$GPGGA,140436.000,4046.35185,N,01447.42800,E,0,00,99.0,313.07,M,0.0,M,,*6B
$GPVTG,0.0,T,,M,0.0,N,0.0,K,N*02
$GNGSA,A,1,,,,,,,,,,,,,99.0,99.0,99.0*1E
$GNGSA,A,1,,,,,,,,,,,,,99.0,99.0,99.0*1E
$GPGSV,3,1,10,27,73,331,,10,71,117,,20,53,061,,16,48,205,*75
$GPGSV,3,2,10,08,36,310,,21,30,066,,26,24,185,,18,16,264,*76
$GPGSV,3,3,10,32,10,143,,15,08,042,,,,,,,,,*74
$GLGSV,3,1,10,87,53,051,,72,50,071,,88,47,327,,65,44,148,*66
$GLGSV,3,2,10,78,27,269,,79,22,314,,71,14,027,,77,09,221,*64
$GLGSV,3,3,10,86,08,094,,81,07,295,,,,,,,,,*6F
$GPGLL,4046.35185,N,01447.42800,E,140436.000,V,N*41
$PSTMCPU,18.94,-1,49*4B
$GPRMC,140437.000,V,4046.35185,N,01447.42800,E,0.0,0.0,120718,,,N*7A
$GPGGA,140437.000,4046.35185,N,01447.42800,E,0,00,99.0,313.07,M,0.0,M,,*6A
$GPVTG,0.0,T,,M,0.0,N,0.0,K,N*02
$GNGSA,A,1,,,,,,,,,,,,,99.0,99.0,99.0*1E
$GNGSA,A,1,,,,,,,,,,,,,99.0,99.0,99.0*1E
$GPGSV,3,1,10,27,73,331,,10,71,117,,20,53,061,,16,48,205,*75
$GPGSV,3,2,10,08,36,310,,21,30,066,,26,24,185,,18,16,264,*76
$GPGSV,3,3,10,32,10,143,,15,08,042,,,,,,,,,*74
$GLGSV,3,1,10,87,53,051,,72,50,071,,88,47,327,,65,44,148,*66
$GLGSV,3,2,10,78,27,269,,79,22,314,,71,14,027,,77,09,221,*64
$GLGSV,3,3,10,86,08,094,,81,07,295,,,,,,,,,*6F
$GPGLL,4046.35185,N,01447.42800,E,140437.000,V,N*40
$PSTMCPU,29.24,-1,49*42
$GPRMC,140438.000,V,4046.35185,N,01447.42800,E,0.0,0.0,120718,,,N*75
$GPGGA,140438.000,4046.35185,N,01447.42800,E,0,00,99.0,313.07,M,0.0,M,,*65
$GPVTG,0.0,T,,M,0.0,N,0.0,K,N*02
$GNGSA,A,1,,,,,,,,,,,,,99.0,99.0,99.0*1E
$GNGSA,A,1,,,,,,,,,,,,,99.0,99.0,99.0*1E
$GPGSV,3,1,10,27,73,331,,10,71,117,,20,53,061,,16,48,205,*75
$GPGSV,3,2,10,08,36,310,,21,30,066,,26,24,185,,18,16,264,*76
$GPGSV,3,3,10,32,10,143,,15,08,042,,,,,,,,,*74
$GLGSV,3,1,10,87,53,051,,72,50,071,,88,47,327,,65,44,148,*66
$GLGSV,3,2,10,78,27,269,,79,22,314,,71,14,027,,77,09,221,*64
$GLGSV,3,3,10,86,08,094,,81,07,295,,,,,,,,,*6F
$GPGLL,4046.35185,N,01447.42800,E,140438.000,V,N*4F
$PSTMCPU,20.38,-1,49*46
$GPRMC,140439.000,V,4046.35185,N,01447.42800,E,0.0,0.0,120718,,,N*74
$GPGGA,140439.000,4046.35185,N,01447.42800,E,0,00,99.0,313.07,M,0.0,M,,*64
$GPVTG,0.0,T,,M,0.0,N,0.0,K,N*02
$GNGSA,A,1,,,,,,,,,,,,,99.0,99.0,99.0*1E
$GNGSA,A,1,,,,,,,,,,,,,99.0,99.0,99.0*1E
$GPGSV,3,1,10,27,73,331,,10,71,117,,20,53,061,,16,48,205,*75
$GPGSV,3,2,10,08,36,310,,21,30,066,,26,24,185,,18,16,264,*76
$GPGSV,3,3,10,32,10,143,,15,08,042,,,,,,,,,*74
$GLGSV,3,1,10,87,53,051,,72,50,071,,88,47,327,,65,44,148,*66
$GLGSV,3,2,10,78,27,269,,79,22,314,,71,14,027,,77,09,221,*64
$GLGSV,3,3,10,86,08,094,,81,07,295,,,,,,,,,*6F
$GPGLL,4046.35185,N,01447.42800,E,140439.000,V,N*4E
$PSTMCPU,23.94,-1,49*43
$GPRMC,140440.000,V,4046.35185,N,01447.42800,E,0.0,0.0,120718,,,N*7A
$GPGGA,140440.000,4046.35185,N,01447.42800,E,0,00,99.0,313.07,M,0.0,M,,*6A
$GPVTG,0.0,T,,M,0.0,N,0.0,K,N*02
$GNGSA,A,1,,,,,,,,,,,,,99.0,99.0,99.0*1E
$GNGSA,A,1,,,,,,,,,,,,,99.0,99.0,99.0*1E
$GPGSV,3,1,10,27,73,331,,10,71,117,,20,53,061,,16,48,205,*75
$GPGSV,3,2,10,08,36,310,,21,30,066,,26,24,185,,18,16,264,*76
$GPGSV,3,3,10,32,10,143,,15,08,042,,,,,,,,,*74
$GLGSV,3,1,10,87,53,051,,72,50,071,,88,47,327,,65,44,148,*66
$GLGSV,3,2,10,78,27,269,,79,22,314,,71,14,027,,77,09,221,*64
$GLGSV,3,3,10,86,08,094,,81,07,295,,,,,,,,,*6F
$GPGLL,4046.35185,N,01447.42800,E,140440.000,V,N*40
$PSTMCPU,25.58,-1,49*45
$GPRMC,140441.000,V,4046.35185,N,01447.42800,E,0.0,0.0,120718,,,N*7B
$GPGGA,140441.000,4046.35185,N,01447.42800,E,0,00,99.0,313.07,M,0.0,M,,*6B
$GPVTG,0.0,T,,M,0.0,N,0.0,K,N*02
$GNGSA,A,1,,,,,,,,,,,,,99.0,99.0,99.0*1E
$GNGSA,A,1,,,,,,,,,,,,,99.0,99.0,99.0*1E
$GPGSV,3,1,10,27,73,331,,10,71,117,,20,53,061,,16,48,205,*75
$GPGSV,3,2,10,08,36,310,,21,30,066,,26,24,185,,18,16,264,*76
$GPGSV,3,3,10,32,10,143,,15,08,042,,,,,,,,,*74
$GLGSV,3,1,10,87,53,051,,72,50,071,,88,47,327,,65,44,148,*66
$GLGSV,3,2,10,78,27,269,,79,22,314,,71,14,027,,77,09,221,*64
$GLGSV,3,3,10,86,08,094,,81,07,295,,,,,,,,,*6F
$GPGLL,4046.35185,N,01447.42800,E,140441.000,V,N*41
$PSTMCPU,28.65,-1,49*46
$GPRMC,140442.000,V,4046.35185,N,01447.42800,E,0.0,0.0,120718,,,N*78
$GPGGA,140442.000,4046.35185,N,01447.42800,E,0,00,99.0,313.07,M,0.0,M,,*68
$GPVTG,0.0,T,,M,0.0,N,0.0,K,N*02
$GNGSA,A,1,,,,,,,,,,,,,99.0,99.0,99.0*1E
$GNGSA,A,1,,,,,,,,,,,,,99.0,99.0,99.0*1E
$GPGSV,3,1,10,27,73,331,,10,71,117,,20,53,061,,16,48,205,*75
$GPGSV,3,2,10,08,36,310,,21,30,066,,26,24,185,,18,16,264,*76
$GPGSV,3,3,10,32,10,143,,15,08,042,,,,,,,,,*74
$GLGSV,3,1,10,87,53,051,,72,50,071,,88,47,327,,65,44,148,*66
$GLGSV,3,2,10,78,27,269,,79,22,314,,71,14,027,,77,09,221,*64
$GLGSV,3,3,10,86,08,094,,81,07,295,,,,,,,,,*6F
$GPGLL,4046.35185,N,01447.42800,E,140442.000,V,N*42
$PSTMCPU,20.08,-1,49*45
$GPRMC,140443.000,V,4046.35185,N,01447.42800,E,0.0,0.0,120718,,,N*79
$GPGGA,140443.000,4046.35185,N,01447.42800,E,0,00,99.0,313.07,M,0.0,M,,*69
$GPVTG,0.0,T,,M,0.0,N,0.0,K,N*02
$GNGSA,A,1,,,,,,,,,,,,,99.0,99.0,99.0*1E
$GNGSA,A,1,,,,,,,,,,,,,99.0,99.0,99.0*1E
$GPGSV,3,1,10,27,73,331,,10,71,117,,20,53,061,,16,48,205,*75
$GPGSV,3,2,10,08,36,310,,21,30,066,,26,24,185,,18,16,264,*76
$GPGSV,3,3,10,32,10,143,,15,08,042,,,,,,,,,*74
$GLGSV,3,1,10,87,53,051,,72,50,071,,88,47,327,,65,44,148,*66
$GLGSV,3,2,10,78,27,269,,79,22,314,,71,14,027,,77,09,221,*64
$GLGSV,3,3,10,86,08,094,,81,07,295,,,,,,,,,*6F
$GPGLL,4046.35185,N,01447.42800,E,140443.000,V,N*43
$PSTMCPU,22.19,-1,49*47
$GPRMC,140444.000,V,4046.35185,N,01447.42800,E,0.0,0.0,120718,,,N*7E
$GPGGA,140444.000,4046.35185,N,01447.42800,E,0,00,99.0,313.07,M,0.0,M,,*6E
$GPVTG,0.0,T,,M,0.0,N,0.0,K,N*02
$GNGSA,A,1,,,,,,,,,,,,,99.0,99.0,99.0*1E
$GNGSA,A,1,,,,,,,,,,,,,99.0,99.0,99.0*1E
$GPGSV,3,1,10,27,73,332,,10,71,117,,20,53,061,,16,48,205,*76
$GPGSV,3,2,10,08,36,310,,21,30,066,,26,24,185,,18,16,264,*76
$GPGSV,3,3,10,32,10,143,,15,08,042,,,,,,,,,*74
$GLGSV,3,1,10,87,53,051,,72,50,071,,88,47,327,,65,44,148,*66
$GLGSV,3,2,10,78,27,269,,79,22,314,,71,14,027,,77,09,221,*64
$GLGSV,3,3,10,86,08,094,,81,07,295,,,,,,,,,*6F
$GPGLL,4046.35185,N,01447.42800,E,140444.000,V,N*44
$PSTMCPU,20.05,-1,49*48
$GPRMC,140445.000,V,4046.35185,N,01447.42800,E,0.0,0.0,120718,,,N*7F
$GPGGA,140445.000,4046.35185,N,01447.42800,E,0,00,99.0,313.07,M,0.0,M,,*6F
$GPVTG,0.0,T,,M,0.0,N,0.0,K,N*02
$GNGSA,A,1,,,,,,,,,,,,,99.0,99.0,99.0*1E
$GNGSA,A,1,,,,,,,,,,,,,99.0,99.0,99.0*1E
$GPGSV,3,1,10,27,73,332,,10,71,117,,20,53,061,,16,48,205,*76
$GPGSV,3,2,10,08,36,310,,21,30,066,,26,24,185,,18,16,264,*76
$GPGSV,3,3,10,32,10,143,,15,08,042,,,,,,,,,*74
$GLGSV,3,1,10,87,53,051,,72,50,071,,88,47,327,,65,44,148,*66
$GLGSV,3,2,10,78,27,269,,79,22,314,,71,14,027,,77,09,221,*64
$GLGSV,3,3,10,86,08,094,,81,07,295,,,,,,,,,*6F
$GPGLL,4046.35185,N,01447.42800,E,140445.000,V,N*45
$PSTMCPU,34.03,-1,49*4B
$GPRMC,140446.000,V,4046.35185,N,01447.42800,E,0.0,0.0,120718,,,N*7C
$GPGGA,140446.000,4046.35185,N,01447.42800,E,0,00,99.0,313.07,M,0.0,M,,*6C
$GPVTG,0.0,T,,M,0.0,N,0.0,K,N*02
$GNGSA,A,1,,,,,,,,,,,,,99.0,99.0,99.0*1E
$GNGSA,A,1,,,,,,,,,,,,,99.0,99.0,99.0*1E
$GPGSV,3,1,10,27,73,332,,10,71,117,,20,53,061,,16,48,205,*76
$GPGSV,3,2,10,08,36,310,,21,30,066,,26,24,185,,18,16,264,*76
$GPGSV,3,3,10,32,10,143,,15,08,042,,,,,,,,,*74
$GLGSV,3,1,10,87,53,051,,72,50,071,,88,47,327,,65,44,148,*66
$GLGSV,3,2,10,78,27,269,,79,22,314,,71,14,027,,77,09,221,*64
$GLGSV,3,3,10,86,08,094,,81,07,295,,,,,,,,,*6F
$GPGLL,4046.35185,N,01447.42800,E,140446.000,V,N*46
$PSTMCPU,19.02,-1,49*45
$GPRMC,140447.000,V,4046.35185,N,01447.42800,E,0.0,0.0,120718,,,N*7D
$GPGGA,140447.000,4046.35185,N,01447.42800,E,0,00,99.0,313.07,M,0.0,M,,*6D
$GPVTG,0.0,T,,M,0.0,N,0.0,K,N*02
$GNGSA,A,1,,,,,,,,,,,,,99.0,99.0,99.0*1E
$GNGSA,A,1,,,,,,,,,,,,,99.0,99.0,99.0*1E
$GPGSV,3,1,10,27,73,332,,10,71,117,,20,53,061,,16,48,205,*76
$GPGSV,3,2,10,08,36,310,,21,30,066,,26,24,185,,18,16,264,*76
$GPGSV,3,3,10,32,10,143,,15,08,042,,,,,,,,,*74
$GLGSV,3,1,10,87,53,051,,72,50,071,,88,47,327,,65,44,148,*66
$GLGSV,3,2,10,78,27,269,,79,22,314,,71,14,027,,77,09,221,*64
$GLGSV,3,3,10,86,08,094,,81,07,295,,,,,,,,,*6F
$GPGLL,4046.35185,N,01447.42800,E,140447.000,V,N*47
$PSTMCPU,22.71,-1,49*49
$GPRMC,140448.000,V,4046.35185,N,01447.42800,E,0.0,0.0,120718,,,N*72
$GPGGA,140448.000,4046.35185,N,01447.42800,E,0,00,99.0,313.07,M,0.0,M,,*62
$GPVTG,0.0,T,,M,0.0,N,0.0,K,N*02
$GNGSA,A,1,,,,,,,,,,,,,99.0,99.0,99.0*1E
$GNGSA,A,1,,,,,,,,,,,,,99.0,99.0,99.0*1E
$GPGSV,3,1,10,27,73,332,,10,71,117,,20,53,061,,16,48,205,*76
$GPGSV,3,2,10,08,36,310,,21,30,066,,26,24,185,,18,16,264,*76
$GPGSV,3,3,10,32,10,143,,15,08,042,,,,,,,,,*74
$GLGSV,3,1,10,87,53,051,,72,50,071,,88,47,327,,65,44,148,*66
$GLGSV,3,2,10,78,27,269,,79,22,314,,71,14,027,,77,09,221,*64
$GLGSV,3,3,10,86,08,094,,81,07,295,,,,,,,,,*6F
$GPGLL,4046.35185,N,01447.42800,E,140448.000,V,N*48
$PSTMCPU,24.40,-1,49*4D
$GPRMC,140449.000,V,4046.35185,N,01447.42800,E,0.0,0.0,120718,,,N*73
$GPGGA,140449.000,4046.35185,N,01447.42800,E,0,00,99.0,313.07,M,0.0,M,,*63
$GPVTG,0.0,T,,M,0.0,N,0.0,K,N*02
$GNGSA,A,1,,,,,,,,,,,,,99.0,99.0,99.0*1E
$GNGSA,A,1,,,,,,,,,,,,,99.0,99.0,99.0*1E
$GPGSV,3,1,10,27,73,332,,10,71,117,,20,53,061,,16,48,205,*76
$GPGSV,3,2,10,08,36,310,,21,30,066,,26,24,185,,18,16,264,*76
$GPGSV,3,3,10,32,10,143,,15,08,042,,,,,,,,,*74
$GLGSV,3,1,10,87,53,051,,72,50,071,,88,47,327,,65,44,148,*66
$GLGSV,3,2,10,78,27,269,,79,22,314,,71,14,027,,77,09,221,*64
$GLGSV,3,3,10,86,08,094,,81,07,295,,,,,,,,,*6F
$GPGLL,4046.35185,N,01447.42800,E,140449.000,V,N*49
$PSTMCPU,27.39,-1,49*40
$GPRMC,140450.000,V,4046.35185,N,01447.42800,E,0.0,0.0,120718,,,N*7B
$GPGGA,140450.000,4046.35185,N,01447.42800,E,0,00,99.0,313.07,M,0.0,M,,*6B
$GPVTG,0.0,T,,M,0.0,N,0.0,K,N*02
$GNGSA,A,1,,,,,,,,,,,,,99.0,99.0,99.0*1E
$GNGSA,A,1,,,,,,,,,,,,,99.0,99.0,99.0*1E
$GPGSV,3,1,10,27,73,332,,10,71,117,,20,53,061,,16,48,205,*76
$GPGSV,3,2,10,08,36,310,,21,30,066,,26,24,185,,18,16,264,*76
$GPGSV,3,3,10,32,10,143,,15,08,042,,,,,,,,,*74
$GLGSV,3,1,10,87,53,051,,72,50,071,,88,47,327,,65,44,148,*66
$GLGSV,3,2,10,78,27,269,,79,22,314,,71,14,027,,77,09,221,*64
$GLGSV,3,3,10,86,08,094,,81,07,295,,,,,,,,,*6F
$GPGLL,4046.35185,N,01447.42800,E,140450.000,V,N*41
$PSTMCPU,24.39,-1,49*43
$GPRMC,140451.000,V,4046.35185,N,01447.42800,E,0.0,0.0,120718,,,N*7A
$GPGGA,140451.000,4046.35185,N,01447.42800,E,0,00,99.0,313.07,M,0.0,M,,*6A
$GPVTG,0.0,T,,M,0.0,N,0.0,K,N*02
$GNGSA,A,1,,,,,,,,,,,,,99.0,99.0,99.0*1E
$GNGSA,A,1,,,,,,,,,,,,,99.0,99.0,99.0*1E
$GPGSV,3,1,10,27,73,332,,10,71,117,,20,53,061,,16,48,205,*76
$GPGSV,3,2,10,08,36,310,,21,30,066,,26,24,185,,18,16,264,*76
$GPGSV,3,3,10,32,10,143,,15,08,042,,,,,,,,,*74
$GLGSV,3,1,10,87,53,051,,72,50,071,,88,47,327,,65,44,148,*66
$GLGSV,3,2,10,78,27,269,,79,22,314,,71,14,027,,77,09,221,*64
$GLGSV,3,3,10,86,08,094,,81,07,295,,,,,,,,,*6F
$GPGLL,4046.35185,N,01447.42800,E,140451.000,V,N*40
$PSTMCPU,22.94,-1,49*42
$GPRMC,140452.000,V,4046.35185,N,01447.42800,E,0.0,0.0,120718,,,N*79
$GPGGA,140452.000,4046.35185,N,01447.42800,E,0,00,99.0,313.07,M,0.0,M,,*69
$GPVTG,0.0,T,,M,0.0,N,0.0,K,N*02
$GNGSA,A,1,,,,,,,,,,,,,99.0,99.0,99.0*1E
$GNGSA,A,1,,,,,,,,,,,,,99.0,99.0,99.0*1E
$GPGSV,3,1,10,27,73,332,,10,71,117,,20,53,061,,16,48,205,*76
$GPGSV,3,2,10,08,36,310,,21,30,066,,26,24,185,,18,16,264,*76
$GPGSV,3,3,10,32,10,143,,15,08,042,,,,,,,,,*74
$GLGSV,3,1,10,87,53,051,,72,50,071,,88,47,327,,65,44,148,*66
$GLGSV,3,2,10,78,27,269,,79,22,314,,71,14,027,,77,09,221,*64
$GLGSV,3,3,10,86,08,094,,81,07,295,,,,,,,,,*6F
$GPGLL,4046.35185,N,01447.42800,E,140452.000,V,N*43
$PSTMCPU,25.22,-1,49*48
$GPRMC,140453.000,V,4046.35185,N,01447.42800,E,0.0,0.0,120718,,,N*78
$GPGGA,140453.000,4046.35185,N,01447.42800,E,0,00,99.0,313.07,M,0.0,M,,*68
$GPVTG,0.0,T,,M,0.0,N,0.0,K,N*02
$GNGSA,A,1,,,,,,,,,,,,,99.0,99.0,99.0*1E
$GNGSA,A,1,,,,,,,,,,,,,99.0,99.0,99.0*1E
$GPGSV,3,1,10,27,73,332,,10,71,117,,20,53,061,,16,48,205,*76
$GPGSV,3,2,10,08,36,310,,21,30,066,,26,24,185,,18,16,264,*76
$GPGSV,3,3,10,32,10,143,,15,08,042,,,,,,,,,*74
$GLGSV,3,1,10,87,53,051,,72,50,071,,88,47,327,,65,44,148,*66
$GLGSV,3,2,10,78,27,269,,79,22,314,,71,14,027,,77,09,221,*64
$GLGSV,3,3,10,86,08,094,,81,07,295,,,,,,,,,*6F
$GPGLL,4046.35185,N,01447.42800,E,140453.000,V,N*42
$PSTMCPU,23.38,-1,49*45
$GPRMC,140454.000,V,4046.35185,N,01447.42800,E,0.0,0.0,120718,,,N*7F
$GPGGA,140454.000,4046.35185,N,01447.42800,E,0,00,99.0,313.07,M,0.0,M,,*6F
$GPVTG,0.0,T,,M,0.0,N,0.0,K,N*02
$GNGSA,A,1,,,,,,,,,,,,,99.0,99.0,99.0*1E
$GNGSA,A,1,,,,,,,,,,,,,99.0,99.0,99.0*1E
$GPGSV,3,1,10,27,73,332,,10,71,117,,20,53,061,,16,48,205,*76
$GPGSV,3,2,10,08,36,310,,21,30,066,,26,24,185,,18,16,264,*76
$GPGSV,3,3,10,32,10,142,,15,08,042,,,,,,,,,*75
$GLGSV,3,1,10,87,53,051,,72,50,071,,88,47,327,,65,44,148,*66
$GLGSV,3,2,10,78,27,269,,79,22,314,,71,14,027,,77,09,221,*64
$GLGSV,3,3,10,86,08,094,,81,07,295,,,,,,,,,*6F
$GPGLL,4046.35185,N,01447.42800,E,140454.000,V,N*45
$PSTMCPU,18.90,-1,49*4F
$GPRMC,140455.000,V,4046.35185,N,01447.42800,E,0.0,0.0,120718,,,N*7E
$GPGGA,140455.000,4046.35185,N,01447.42800,E,0,00,99.0,313.07,M,0.0,M,,*6E
$GPVTG,0.0,T,,M,0.0,N,0.0,K,N*02
$GNGSA,A,1,,,,,,,,,,,,,99.0,99.0,99.0*1E
$GNGSA,A,1,,,,,,,,,,,,,99.0,99.0,99.0*1E
$GPGSV,3,1,10,27,73,332,,10,71,117,,20,53,061,,16,48,205,*76
$GPGSV,3,2,10,08,36,310,,21,30,066,,26,24,185,,18,16,264,*76
$GPGSV,3,3,10,32,10,142,,15,08,042,,,,,,,,,*75
$GLGSV,3,1,10,87,53,051,,72,50,071,,88,47,327,,65,44,148,*66
$GLGSV,3,2,10,78,27,269,,79,22,314,,71,14,027,,77,09,221,*64
$GLGSV,3,3,10,86,08,094,,81,07,295,,,,,,,,,*6F
$GPGLL,4046.35185,N,01447.42800,E,140455.000,V,N*44
$PSTMCPU,29.30,-1,49*47
$GPRMC,140456.000,V,4046.35185,N,01447.42800,E,0.0,0.0,120718,,,N*7D
$GPGGA,140456.000,4046.35185,N,01447.42800,E,0,00,99.0,313.07,M,0.0,M,,*6D
$GPVTG,0.0,T,,M,0.0,N,0.0,K,N*02
$GNGSA,A,1,,,,,,,,,,,,,99.0,99.0,99.0*1E
$GNGSA,A,1,,,,,,,,,,,,,99.0,99.0,99.0*1E
$GPGSV,3,1,10,27,73,332,,10,71,117,,20,53,061,,16,48,205,*76
$GPGSV,3,2,10,08,36,310,,21,30,066,,26,24,185,,18,16,264,*76
$GPGSV,3,3,10,32,10,142,,15,08,042,,,,,,,,,*75
$GLGSV,3,1,10,87,53,051,,72,50,071,,88,47,327,,65,44,148,*66
$GLGSV,3,2,10,78,27,269,,79,22,314,,71,14,027,,77,09,221,*64
$GLGSV,3,3,10,86,08,094,,81,07,295,,,,,,,,,*6F
$GPGLL,4046.35185,N,01447.42800,E,140456.000,V,N*47
$PSTMCPU,26.02,-1,49*49
$GPRMC,140457.000,V,4046.35185,N,01447.42800,E,0.0,0.0,120718,,,N*7C
$GPGGA,140457.000,4046.35185,N,01447.42800,E,0,00,99.0,313.07,M,0.0,M,,*6C
$GPVTG,0.0,T,,M,0.0,N,0.0,K,N*02
$GNGSA,A,1,,,,,,,,,,,,,99.0,99.0,99.0*1E
$GNGSA,A,1,,,,,,,,,,,,,99.0,99.0,99.0*1E
$GPGSV,3,1,10,27,73,332,,10,71,117,,20,53,061,,16,48,205,*76
$GPGSV,3,2,10,08,36,310,,21,30,066,,26,24,185,,18,16,264,*76
$GPGSV,3,3,10,32,10,142,,15,08,042,,,,,,,,,*75
$GLGSV,3,1,10,87,53,051,,72,50,071,,88,47,327,,65,44,148,*66
$GLGSV,3,2,10,78,27,269,,79,22,314,,71,14,027,,77,09,221,*64
$GLGSV,3,3,10,86,08,094,,81,07,295,,,,,,,,,*6F
$GPGLL,4046.35185,N,01447.42800,E,140457.000,V,N*46
$PSTMCPU,21.79,-1,49*42
$GPRMC,140458.000,V,4046.35185,N,01447.42800,E,0.0,0.0,120718,,,N*73
$GPGGA,140458.000,4046.35185,N,01447.42800,E,0,00,99.0,313.07,M,0.0,M,,*63
$GPVTG,0.0,T,,M,0.0,N,0.0,K,N*02
$GNGSA,A,1,,,,,,,,,,,,,99.0,99.0,99.0*1E
$GNGSA,A,1,,,,,,,,,,,,,99.0,99.0,99.0*1E
$GPGSV,3,1,10,27,73,332,,10,71,117,,20,53,061,,16,48,205,*76
$GPGSV,3,2,10,08,36,310,,21,30,066,,26,24,185,,18,16,264,*76
$GPGSV,3,3,10,32,10,142,,15,08,042,,,,,,,,,*75
$GLGSV,3,1,10,87,53,051,,72,50,071,,88,47,327,,65,44,148,*66
$GLGSV,3,2,10,78,27,269,,79,22,314,,71,14,027,,77,09,221,*64
$GLGSV,3,3,10,86,08,094,,81,07,295,,,,,,,,,*6F
$GPGLL,4046.35185,N,01447.42800,E,140458.000,V,N*49
$PSTMCPU,20.06,-1,49*4B
$GPRMC,140459.000,V,4046.35185,N,01447.42800,E,0.0,0.0,120718,,,N*72
$GPGGA,140459.000,4046.35185,N,01447.42800,E,0,00,99.0,313.07,M,0.0,M,,*62
$GPVTG,0.0,T,,M,0.0,N,0.0,K,N*02
$GNGSA,A,1,,,,,,,,,,,,,99.0,99.0,99.0*1E
$GNGSA,A,1,,,,,,,,,,,,,99.0,99.0,99.0*1E
$GPGSV,3,1,10,27,73,332,,10,71,117,,20,53,061,,16,48,205,*76
$GPGSV,3,2,10,08,36,310,,21,30,066,,26,24,185,,18,16,264,*76
$GPGSV,3,3,10,32,10,142,,15,08,042,,,,,,,,,*75
$GLGSV,3,1,10,87,53,051,,72,50,071,,88,47,327,,65,44,148,*66
$GLGSV,3,2,10,78,27,269,,79,22,314,,71,14,027,,77,09,221,*64
$GLGSV,3,3,10,86,08,094,,81,07,295,,,,,,,,,*6F
$GPGLL,4046.35185,N,01447.42800,E,140459.000,V,N*48
$PSTMCPU,25.16,-1,49*4F
$GPRMC,140500.000,V,4046.35185,N,01447.42800,E,0.0,0.0,120718,,,N*7F
$GPGGA,140500.000,4046.35185,N,01447.42800,E,0,00,99.0,313.07,M,0.0,M,,*6F
$GPVTG,0.0,T,,M,0.0,N,0.0,K,N*02
$GNGSA,A,1,,,,,,,,,,,,,99.0,99.0,99.0*1E
$GNGSA,A,1,,,,,,,,,,,,,99.0,99.0,99.0*1E
$GPGSV,3,1,10,27,73,332,,10,71,117,,20,53,061,,16,48,205,*76
$GPGSV,3,2,10,08,36,310,,21,30,066,,26,24,185,,18,16,264,*76
$GPGSV,3,3,10,32,10,142,,15,08,042,,,,,,,,,*75
$GLGSV,3,1,10,87,53,051,,72,50,071,,88,47,327,,65,44,148,*66
$GLGSV,3,2,10,78,27,269,,79,22,314,,71,14,027,,77,09,221,*64
$GLGSV,3,3,10,86,08,094,,81,07,295,,,,,,,,,*6F
$GPGLL,4046.35185,N,01447.42800,E,140500.000,V,N*45
$PSTMCPU,31.52,-1,49*4A
$GPRMC,140501.000,V,4046.35185,N,01447.42800,E,0.0,0.0,120718,,,N*7E
$GPGGA,140501.000,4046.35185,N,01447.42800,E,0,00,99.0,313.07,M,0.0,M,,*6E
$GPVTG,0.0,T,,M,0.0,N,0.0,K,N*02
$GNGSA,A,1,,,,,,,,,,,,,99.0,99.0,99.0*1E
$GNGSA,A,1,,,,,,,,,,,,,99.0,99.0,99.0*1E
$GPGSV,3,1,10,27,73,332,,10,71,117,,20,53,061,,16,48,205,*76
$GPGSV,3,2,10,08,36,310,,21,30,066,,26,24,185,,18,16,264,*76
$GPGSV,3,3,10,32,10,142,,15,08,042,,,,,,,,,*75
$GLGSV,3,1,10,87,53,051,,72,50,071,,88,47,327,,65,44,148,*66
$GLGSV,3,2,10,78,27,269,,79,22,314,,71,14,027,,77,09,221,*64
$GLGSV,3,3,10,86,08,094,,81,07,295,,,,,,,,,*6F
$GPGLL,4046.35185,N,01447.42800,E,140501.000,V,N*44
$PSTMCPU,22.58,-1,49*42
$GPRMC,140502.000,V,4046.35185,N,01447.42800,E,0.0,0.0,120718,,,N*7D
$GPGGA,140502.000,4046.35185,N,01447.42800,E,0,00,99.0,313.07,M,0.0,M,,*6D
$GPVTG,0.0,T,,M,0.0,N,0.0,K,N*02
$GNGSA,A,1,,,,,,,,,,,,,99.0,99.0,99.0*1E
$GNGSA,A,1,,,,,,,,,,,,,99.0,99.0,99.0*1E
$GPGSV,3,1,10,27,73,332,,10,71,117,,20,53,061,,16,48,205,*76
$GPGSV,3,2,10,08,36,310,,21,30,066,,26,24,185,,18,16,264,*76
$GPGSV,3,3,10,32,10,142,,15,08,042,,,,,,,,,*75
$GLGSV,3,1,10,87,53,051,,72,50,071,,88,47,327,,65,44,148,*66
$GLGSV,3,2,10,78,27,269,,79,22,314,,71,14,027,,77,09,221,*64
$GLGSV,3,3,10,86,08,094,,81,08,295,,,,,,,,,*60
$GPGLL,4046.35185,N,01447.42800,E,140502.000,V,N*47
$PSTMCPU,20.08,-1,49*45
$GPRMC,140503.000,V,4046.35185,N,01447.42800,E,0.0,0.0,120718,,,N*7C
$GPGGA,140503.000,4046.35185,N,01447.42800,E,0,00,99.0,313.07,M,0.0,M,,*6C
$GPVTG,0.0,T,,M,0.0,N,0.0,K,N*02
$GNGSA,A,1,,,,,,,,,,,,,99.0,99.0,99.0*1E
$GNGSA,A,1,,,,,,,,,,,,,99.0,99.0,99.0*1E
$GPGSV,3,1,10,27,73,332,,10,71,117,,20,53,061,,16,48,205,*76
$GPGSV,3,2,10,08,36,310,,21,30,066,,26,24,185,,18,16,264,*76
$GPGSV,3,3,10,32,10,142,,15,08,042,,,,,,,,,*75
$GLGSV,3,1,10,87,53,051,,72,50,071,,88,47,327,,65,44,148,*66
$GLGSV,3,2,10,78,27,269,,79,22,314,,71,14,027,,77,09,221,*64
$GLGSV,3,3,10,86,08,094,,81,08,295,,,,,,,,,*60
$GPGLL,4046.35185,N,01447.42800,E,140503.000,V,N*46
$PSTMCPU,25.49,-1,49*45
$GPRMC,140504.000,V,4046.35185,N,01447.42800,E,0.0,0.0,120718,,,N*7B
$GPGGA,140504.000,4046.35185,N,01447.42800,E,0,00,99.0,313.07,M,0.0,M,,*6B
$GPVTG,0.0,T,,M,0.0,N,0.0,K,N*02
$GNGSA,A,1,,,,,,,,,,,,,99.0,99.0,99.0*1E
$GNGSA,A,1,,,,,,,,,,,,,99.0,99.0,99.0*1E
$GPGSV,3,1,10,27,73,332,,10,71,117,,20,53,061,,16,48,205,*76
$GPGSV,3,2,10,08,36,310,,21,30,066,,26,24,185,,18,16,264,*76
$GPGSV,3,3,10,32,10,142,,15,08,042,,,,,,,,,*75
$GLGSV,3,1,10,87,53,051,,72,50,071,,88,47,327,,65,44,148,*66
$GLGSV,3,2,10,78,27,269,,79,22,314,,71,14,027,,77,09,221,*64
$GLGSV,3,3,10,86,08,094,,81,08,295,,,,,,,,,*60
$GPGLL,4046.35185,N,01447.42800,E,140504.000,V,N*41
$PSTMCPU,21.85,-1,49*41
$GPRMC,140505.000,V,4046.35185,N,01447.42800,E,0.0,0.0,120718,,,N*7A
$GPGGA,140505.000,4046.35185,N,01447.42800,E,0,00,99.0,313.07,M,0.0,M,,*6A
$GPVTG,0.0,T,,M,0.0,N,0.0,K,N*02
$GNGSA,A,1,,,,,,,,,,,,,99.0,99.0,99.0*1E
$GNGSA,A,1,,,,,,,,,,,,,99.0,99.0,99.0*1E
$GPGSV,3,1,10,27,73,332,,10,71,117,,20,53,061,,16,48,205,*76
$GPGSV,3,2,10,08,36,310,,21,30,066,,26,24,185,,18,16,264,*76
$GPGSV,3,3,10,32,10,142,,15,08,042,,,,,,,,,*75
$GLGSV,3,1,10,87,53,051,,72,50,071,,88,47,327,,65,44,148,*66
$GLGSV,3,2,10,78,27,269,,79,22,314,,71,14,027,,77,09,221,*64
$GLGSV,3,3,10,86,08,094,,81,08,295,,,,,,,,,*60
$GPGLL,4046.35185,N,01447.42800,E,140505.000,V,N*40
$PSTMCPU,28.38,-1,49*4E
$GPRMC,140506.000,V,4046.35185,N,01447.42800,E,0.0,0.0,120718,,,N*79
$GPGGA,140506.000,4046.35185,N,01447.42800,E,0,00,99.0,313.07,M,0.0,M,,*69
$GPVTG,0.0,T,,M,0.0,N,0.0,K,N*02
$GNGSA,A,1,,,,,,,,,,,,,99.0,99.0,99.0*1E
$GNGSA,A,1,,,,,,,,,,,,,99.0,99.0,99.0*1E
$GPGSV,3,1,10,27,73,332,,10,71,117,,20,53,061,,16,48,205,*76
$GPGSV,3,2,10,08,36,310,,21,30,066,,26,24,185,,18,16,264,*76
$GPGSV,3,3,10,32,10,142,,15,08,042,,,,,,,,,*75
$GLGSV,3,1,10,87,53,051,,72,50,071,,88,47,327,,65,44,148,*66
$GLGSV,3,2,10,78,27,269,,79,22,314,,71,14,027,,77,09,221,*64
$GLGSV,3,3,10,86,08,094,,81,08,295,,,,,,,,,*60
$GPGLL,4046.35185,N,01447.42800,E,140506.000,V,N*43
$PSTMCPU,20.13,-1,49*4F
$GPRMC,140507.000,V,4046.35185,N,01447.42800,E,0.0,0.0,120718,,,N*78
$GPGGA,140507.000,4046.35185,N,01447.42800,E,0,00,99.0,313.07,M,0.0,M,,*68
$GPVTG,0.0,T,,M,0.0,N,0.0,K,N*02
$GNGSA,A,1,,,,,,,,,,,,,99.0,99.0,99.0*1E
$GNGSA,A,1,,,,,,,,,,,,,99.0,99.0,99.0*1E
$GPGSV,3,1,10,27,73,332,,10,71,117,,20,53,061,,16,48,205,*76
$GPGSV,3,2,10,08,36,310,,21,30,066,,26,24,185,,18,16,264,*76
$GPGSV,3,3,10,32,10,142,,15,08,042,,,,,,,,,*75
$GLGSV,3,1,10,87,53,051,,72,50,071,,88,47,327,,65,44,148,*66
$GLGSV,3,2,10,78,27,269,,79,22,314,,71,14,027,,77,09,221,*64
$GLGSV,3,3,10,86,08,094,,81,08,295,,,,,,,,,*60
$GPGLL,4046.35185,N,01447.42800,E,140507.000,V,N*42
$PSTMCPU,28.66,-1,49*45
$GPRMC,140508.000,V,4046.35185,N,01447.42800,E,0.0,0.0,120718,,,N*77
$GPGGA,140508.000,4046.35185,N,01447.42800,E,0,00,99.0,313.07,M,0.0,M,,*67
$GPVTG,0.0,T,,M,0.0,N,0.0,K,N*02
$GNGSA,A,1,,,,,,,,,,,,,99.0,99.0,99.0*1E
$GNGSA,A,1,,,,,,,,,,,,,99.0,99.0,99.0*1E
$GPGSV,3,1,10,27,73,332,,10,71,117,,20,53,061,,16,48,205,*76
$GPGSV,3,2,10,08,36,310,,21,30,066,,26,24,185,,18,16,264,*76
$GPGSV,3,3,10,32,10,142,,15,08,042,,,,,,,,,*75
$GLGSV,3,1,10,87,53,051,,72,50,071,,88,47,327,,65,44,148,*66
$GLGSV,3,2,10,78,27,268,,79,22,314,,71,14,027,,77,09,221,*65
$GLGSV,3,3,10,86,08,094,,81,08,295,,,,,,,,,*60
$GPGLL,4046.35185,N,01447.42800,E,140508.000,V,N*4D
$PSTMCPU,19.76,-1,49*46
$GPRMC,140509.000,V,4046.35185,N,01447.42800,E,0.0,0.0,120718,,,N*76
$GPGGA,140509.000,4046.35185,N,01447.42800,E,0,00,99.0,313.07,M,0.0,M,,*66
$GPVTG,0.0,T,,M,0.0,N,0.0,K,N*02
$GNGSA,A,1,,,,,,,,,,,,,99.0,99.0,99.0*1E
$GNGSA,A,1,,,,,,,,,,,,,99.0,99.0,99.0*1E
$GPGSV,3,1,10,27,73,332,,10,71,117,,20,53,061,,16,48,205,*76
$GPGSV,3,2,10,08,36,310,,21,30,066,,26,24,185,,18,16,264,*76
$GPGSV,3,3,10,32,10,142,,15,08,042,,,,,,,,,*75
$GLGSV,3,1,10,87,53,051,,72,50,071,,88,47,327,,65,44,148,*66
$GLGSV,3,2,10,78,27,268,,79,22,314,,71,14,027,,77,09,221,*65
$GLGSV,3,3,10,86,08,094,,81,08,295,,,,,,,,,*60
$GPGLL,4046.35185,N,01447.42800,E,140509.000,V,N*4C
$PSTMCPU,25.07,-1,49*4F
$GPRMC,140510.000,V,4046.35185,N,01447.42800,E,0.0,0.0,120718,,,N*7E
$GPGGA,140510.000,4046.35185,N,01447.42800,E,0,00,99.0,313.07,M,0.0,M,,*6E
$GPVTG,0.0,T,,M,0.0,N,0.0,K,N*02
$GNGSA,A,1,,,,,,,,,,,,,99.0,99.0,99.0*1E
$GNGSA,A,1,,,,,,,,,,,,,99.0,99.0,99.0*1E
$GPGSV,3,1,10,27,73,332,,10,71,117,,20,53,061,,16,48,205,*76
$GPGSV,3,2,10,08,36,310,,21,30,066,,26,24,185,,18,16,264,*76
$GPGSV,3,3,10,32,10,142,,15,08,042,,,,,,,,,*75
$GLGSV,3,1,10,87,53,051,,72,50,071,,88,47,327,,65,44,148,*66
$GLGSV,3,2,10,78,27,268,,79,22,314,,71,14,027,,77,09,221,*65
$GLGSV,3,3,10,86,08,094,,81,08,295,,,,,,,,,*60
$GPGLL,4046.35185,N,01447.42800,E,140510.000,V,N*44
$PSTMCPU,25.56,-1,49*4B
$GPRMC,140511.000,V,4046.35185,N,01447.42800,E,0.0,0.0,120718,,,N*7F
$GPGGA,140511.000,4046.35185,N,01447.42800,E,0,00,99.0,313.07,M,0.0,M,,*6F
$GPVTG,0.0,T,,M,0.0,N,0.0,K,N*02
$GNGSA,A,1,,,,,,,,,,,,,99.0,99.0,99.0*1E
$GNGSA,A,1,,,,,,,,,,,,,99.0,99.0,99.0*1E
$GPGSV,3,1,10,27,73,332,,10,71,117,,20,53,061,,16,48,205,*76
$GPGSV,3,2,10,08,36,310,,21,30,066,,26,24,185,,18,16,264,*76
$GPGSV,3,3,10,32,10,142,,15,08,042,,,,,,,,,*75
$GLGSV,3,1,10,87,53,051,,72,50,071,,88,47,327,,65,44,148,*66
$GLGSV,3,2,10,78,27,268,,79,22,314,,71,14,027,,77,09,221,*65
$GLGSV,3,3,10,86,08,094,,81,08,295,,,,,,,,,*60
$GPGLL,4046.35185,N,01447.42800,E,140511.000,V,N*45
$PSTMCPU,28.18,-1,49*4C
$GPRMC,140512.000,V,4046.35185,N,01447.42800,E,0.0,0.0,120718,,,N*7C
$GPGGA,140512.000,4046.35185,N,01447.42800,E,0,00,99.0,313.07,M,0.0,M,,*6C
$GPVTG,0.0,T,,M,0.0,N,0.0,K,N*02
$GNGSA,A,1,,,,,,,,,,,,,99.0,99.0,99.0*1E
$GNGSA,A,1,,,,,,,,,,,,,99.0,99.0,99.0*1E
$GPGSV,3,1,10,27,73,332,,10,71,117,,20,53,061,,16,48,205,*76
$GPGSV,3,2,10,08,36,310,,21,30,066,,26,24,185,,18,16,264,*76
$GPGSV,3,3,10,32,10,142,,15,08,042,,,,,,,,,*75
$GLGSV,3,1,10,87,53,051,,72,50,071,,88,47,327,,65,44,148,*66
$GLGSV,3,2,10,78,27,268,,79,22,314,,71,14,027,,77,09,221,*65
$GLGSV,3,3,10,86,08,094,,81,08,295,,,,,,,,,*60
$GPGLL,4046.35185,N,01447.42800,E,140512.000,V,N*46
$PSTMCPU,19.23,-1,49*46
$GPRMC,140513.000,V,4046.35185,N,01447.42800,E,0.0,0.0,120718,,,N*7D
$GPGGA,140513.000,4046.35185,N,01447.42800,E,0,00,99.0,313.07,M,0.0,M,,*6D
$GPVTG,0.0,T,,M,0.0,N,0.0,K,N*02
$GNGSA,A,1,,,,,,,,,,,,,99.0,99.0,99.0*1E
$GNGSA,A,1,,,,,,,,,,,,,99.0,99.0,99.0*1E
$GPGSV,3,1,10,27,73,332,,10,71,117,,20,53,061,,16,48,205,*76
$GPGSV,3,2,10,08,36,310,,21,30,066,,26,24,185,,18,16,264,*76
$GPGSV,3,3,10,32,10,142,,15,08,042,,,,,,,,,*75
$GLGSV,3,1,10,87,53,051,,72,50,071,,88,47,327,,65,44,148,*66
$GLGSV,3,2,10,78,27,268,,79,22,314,,71,14,027,,77,09,221,*65
$GLGSV,3,3,10,86,08,094,,81,08,295,,,,,,,,,*60
$GPGLL,4046.35185,N,01447.42800,E,140513.000,V,N*47
$PSTMCPU,23.41,-1,49*4B
$GPRMC,140514.000,V,4046.35185,N,01447.42800,E,0.0,0.0,120718,,,N*7A
$GPGGA,140514.000,4046.35185,N,01447.42800,E,0,00,99.0,313.07,M,0.0,M,,*6A
$GPVTG,0.0,T,,M,0.0,N,0.0,K,N*02
$GNGSA,A,1,,,,,,,,,,,,,99.0,99.0,99.0*1E
$GNGSA,A,1,,,,,,,,,,,,,99.0,99.0,99.0*1E
$GPGSV,3,1,10,27,73,332,,10,71,116,,20,53,061,,16,48,205,*77
$GPGSV,3,2,10,08,36,310,,21,30,066,,26,24,185,,18,16,264,*76
$GPGSV,3,3,10,32,10,142,,15,08,042,,,,,,,,,*75
$GLGSV,3,1,10,87,53,051,,72,50,071,,88,47,327,,65,44,148,*66
$GLGSV,3,2,10,78,27,268,,79,22,314,,71,14,027,,77,09,221,*65
$GLGSV,3,3,10,86,08,094,,81,08,295,,,,,,,,,*60
$GPGLL,4046.35185,N,01447.42800,E,140514.000,V,N*40
$PSTMCPU,20.07,-1,49*4A
$GPRMC,140515.000,V,4046.35185,N,01447.42800,E,0.0,0.0,120718,,,N*7B
$GPGGA,140515.000,4046.35185,N,01447.42800,E,0,00,99.0,313.07,M,0.0,M,,*6B
$GPVTG,0.0,T,,M,0.0,N,0.0,K,N*02
$GNGSA,A,1,,,,,,,,,,,,,99.0,99.0,99.0*1E
$GNGSA,A,1,,,,,,,,,,,,,99.0,99.0,99.0*1E
$GPGSV,3,1,10,27,73,332,,10,71,116,,20,53,061,,16,48,205,*77
$GPGSV,3,2,10,08,36,310,,21,30,066,,26,24,185,,18,16,264,*76
$GPGSV,3,3,10,32,10,142,,15,08,042,,,,,,,,,*75
$GLGSV,3,1,10,87,53,051,,72,50,071,,88,47,327,,65,44,148,*66
$GLGSV,3,2,10,78,27,268,,79,22,314,,71,14,027,,77,09,221,*65
$GLGSV,3,3,10,86,08,094,,81,08,295,,,,,,,,,*60
$GPGLL,4046.35185,N,01447.42800,E,140515.000,V,N*41
$PSTMCPU,33.05,-1,49*4A
$GPRMC,140516.000,V,4046.35185,N,01447.42800,E,0.0,0.0,120718,,,N*78
$GPGGA,140516.000,4046.35185,N,01447.42800,E,0,00,99.0,313.07,M,0.0,M,,*68
$GPVTG,0.0,T,,M,0.0,N,0.0,K,N*02
$GNGSA,A,1,,,,,,,,,,,,,99.0,99.0,99.0*1E
$GNGSA,A,1,,,,,,,,,,,,,99.0,99.0,99.0*1E
$GPGSV,3,1,10,27,73,332,,10,71,116,,20,53,061,,16,48,205,*77
$GPGSV,3,2,10,08,36,310,,21,30,066,,26,24,185,,18,16,264,*76
$GPGSV,3,3,10,32,10,142,,15,08,042,,,,,,,,,*75
$GLGSV,3,1,10,87,53,051,,72,50,071,,88,47,327,,65,44,148,*66
$GLGSV,3,2,10,78,27,268,,79,22,314,,71,14,027,,77,09,221,*65
$GLGSV,3,3,10,86,08,094,,81,08,295,,,,,,,,,*60
$GPGLL,4046.35185,N,01447.42800,E,140516.000,V,N*42
$PSTMCPU,20.16,-1,49*4A
$GPRMC,140517.000,V,4046.35185,N,01447.42800,E,0.0,0.0,120718,,,N*79
$GPGGA,140517.000,4046.35185,N,01447.42800,E,0,00,99.0,313.07,M,0.0,M,,*69
$GPVTG,0.0,T,,M,0.0,N,0.0,K,N*02
$GNGSA,A,1,,,,,,,,,,,,,99.0,99.0,99.0*1E
$GNGSA,A,1,,,,,,,,,,,,,99.0,99.0,99.0*1E
$GPGSV,3,1,10,27,73,332,,10,71,116,,20,53,061,,16,48,205,*77
$GPGSV,3,2,10,08,36,310,,21,30,066,,26,24,185,,18,16,264,*76
$GPGSV,3,3,10,32,10,142,,15,08,042,,,,,,,,,*75
$GLGSV,3,1,10,87,53,051,,72,50,071,,88,47,327,,65,44,148,*66
$GLGSV,3,2,10,78,27,268,,79,22,314,,71,14,027,,77,09,221,*65
$GLGSV,3,3,10,86,08,094,,81,08,295,,,,,,,,,*60
$GPGLL,4046.35185,N,01447.42800,E,140517.000,V,N*43
$PSTMCPU,22.98,-1,49*4E
$GPRMC,140518.000,V,4046.35185,N,01447.42800,E,0.0,0.0,120718,,,N*76
$GPGGA,140518.000,4046.35185,N,01447.42800,E,0,00,99.0,313.07,M,0.0,M,,*66
$GPVTG,0.0,T,,M,0.0,N,0.0,K,N*02
$GNGSA,A,1,,,,,,,,,,,,,99.0,99.0,99.0*1E
$GNGSA,A,1,,,,,,,,,,,,,99.0,99.0,99.0*1E
$GPGSV,3,1,10,27,73,332,,10,71,116,,20,53,061,,16,48,205,*77
$GPGSV,3,2,10,08,36,310,,21,30,066,,26,24,185,,18,16,264,*76
$GPGSV,3,3,10,32,10,142,,15,08,042,,,,,,,,,*75
$GLGSV,3,1,10,87,53,051,,72,50,071,,88,47,327,,65,44,148,*66
$GLGSV,3,2,10,78,27,268,,79,22,314,,71,14,027,,77,09,221,*65
$GLGSV,3,3,10,86,08,094,,81,08,295,,,,,,,,,*60
$GPGLL,4046.35185,N,01447.42800,E,140518.000,V,N*4C
$PSTMCPU,21.29,-1,49*47
$GPRMC,140519.000,V,4046.35185,N,01447.42800,E,0.0,0.0,120718,,,N*77
$GPGGA,140519.000,4046.35185,N,01447.42800,E,0,00,99.0,313.07,M,0.0,M,,*67
$GPVTG,0.0,T,,M,0.0,N,0.0,K,N*02
$GNGSA,A,1,,,,,,,,,,,,,99.0,99.0,99.0*1E
$GNGSA,A,1,,,,,,,,,,,,,99.0,99.0,99.0*1E
$GPGSV,3,1,10,27,73,332,,10,71,116,,20,53,061,,16,48,205,*77
$GPGSV,3,2,10,08,36,310,,21,30,066,,26,24,185,,18,16,264,*76
$GPGSV,3,3,10,32,10,142,,15,08,042,,,,,,,,,*75
$GLGSV,3,1,10,87,53,051,,72,50,071,,88,47,327,,65,44,148,*66
$GLGSV,3,2,10,78,27,268,,79,22,314,,71,14,027,,77,09,221,*65
$GLGSV,3,3,10,86,08,094,,81,08,295,,,,,,,,,*60
$GPGLL,4046.35185,N,01447.42800,E,140519.000,V,N*4D
$PSTMCPU,29.62,-1,49*40
$GPRMC,140520.000,V,4046.35185,N,01447.42800,E,0.0,0.0,120718,,,N*7D
$GPGGA,140520.000,4046.35185,N,01447.42800,E,0,00,99.0,313.07,M,0.0,M,,*6D
$GPVTG,0.0,T,,M,0.0,N,0.0,K,N*02
$GNGSA,A,1,,,,,,,,,,,,,99.0,99.0,99.0*1E
$GNGSA,A,1,,,,,,,,,,,,,99.0,99.0,99.0*1E
$GPGSV,3,1,10,27,73,332,,10,71,116,,20,53,061,,16,48,205,*77
$GPGSV,3,2,10,08,36,310,,21,30,066,,26,24,185,,18,16,264,*76
$GPGSV,3,3,10,32,10,142,,15,08,042,,,,,,,,,*75
$GLGSV,3,1,10,87,53,051,,72,50,071,,88,47,327,,65,44,148,*66
$GLGSV,3,2,10,78,27,268,,79,22,314,,71,14,027,,77,09,221,*65
$GLGSV,3,3,10,86,08,094,,81,08,295,,,,,,,,,*60
