RECEIVED:  "$GPRMC,143034.000,V,4046.35185,N,01447.42800,E,0.0,0.0,120718,,,N*7E
"
$xxRMC: raw coordinates and speed: (40.772533416,14.790467262) 0/10
  $xxRMC fixed-point coordinates and speed scaled to three decimal places: (4046352,1447428) 0
  $xxRMC floating point degree coordinates and speed: (40.772529602,14.790466308) 0.000000000
RECEIVED:  "$GNGSA,A,1,,,,,,,,,,,,,99.0,99.0,99.0*1E
"
RECEIVED:  "$GPGSV,3,1,10,27,85,000,,10,70,079,,08,47,313,,20,43,053,*73
"
  $xxGSV: message 1 of 3
  $xxGSV: sattelites in view: 10
  $xxGSV: sat nr 27, elevation: 85, azimuth: 0, snr: 0 dbm
  $xxGSV: sat nr 10, elevation: 70, azimuth: 79, snr: 0 dbm
  $xxGSV: sat nr 8, elevation: 47, azimuth: 313, snr: 0 dbm
  $xxGSV: sat nr 20, elevation: 43, azimuth: 53, snr: 0 dbm
RECEIVED:  "$GLGSV,2,1,08,65,57,137,,88,55,345,,87,47,072,,72,45,051,*61
"
  $xxGSV: message 1 of 2
  $xxGSV: sattelites in view: 8
  $xxGSV: sat nr 65, elevation: 57, azimuth: 137, snr: 0 dbm
  $xxGSV: sat nr 88, elevation: 55, azimuth: 345, snr: 0 dbm
  $xxGSV: sat nr 87, elevation: 47, azimuth: 72, snr: 0 dbm
  $xxGSV: sat nr 72, elevation: 45, azimuth: 51, snr: 0 dbm
RECEIVED:  "$PSTMCPU,22.83,-1,49*44
"
  $xxxxx sentence is not valid
RECEIVED:  "$GPRMC,143035.000,V,4046.35185,N,01447.42800,E,0.0,0.0,120718,,,N*7F
"
$xxRMC: raw coordinates and speed: (40.772533416,14.790467262) 0/10
  $xxRMC fixed-point coordinates and speed scaled to three decimal places: (4046352,1447428) 0
  $xxRMC floating point degree coordinates and speed: (40.772529602,14.790466308) 0.000000000
RECEIVED:  "$GNGSA,A,1,,,,,,,,,,,,,99.0,99.0,99.0*1E
"
RECEIVED:  "$GPGSV,3,1,10,27,85,000,,10,70,079,,08,47,313,,20,43,053,*73
"
  $xxGSV: message 1 of 3
  $xxGSV: sattelites in view: 10
  $xxGSV: sat nr 27, elevation: 85, azimuth: 0, snr: 0 dbm
  $xxGSV: sat nr 10, elevation: 70, azimuth: 79, snr: 0 dbm
  $xxGSV: sat nr 8, elevation: 47, azimuth: 313, snr: 0 dbm
  $xxGSV: sat nr 20, elevation: 43, azimuth: 53, snr: 0 dbm
RECEIVED:  "$GLGSV,2,1,08,65,57,137,,88,55,345,,87,47,072,,72,45,051,*61
"
  $xxGSV: message 1 of 2
  $xxGSV: sattelites in view: 8
  $xxGSV: sat nr 65, elevation: 57, azimuth: 137, snr: 0 dbm
  $xxGSV: sat nr 88, elevation: 55, azimuth: 345, snr: 0 dbm
  $xxGSV: sat nr 87, elevation: 47, azimuth: 72, snr: 0 dbm
  $xxGSV: sat nr 72, elevation: 45, azimuth: 51, snr: 0 dbm
RECEIVED:  "$PSTMCPU,26.79,-1,49*45
"
  $xxxxx sentence is not valid
RECEIVED:  "$GPRMC,143036.000,V,4046.35185,N,01447.42800,E,0.0,0.0,120718,,,N*7C
"
$xxRMC: raw coordinates and speed: (40.772533416,14.790467262) 0/10
  $xxRMC fixed-point coordinates and speed scaled to three decimal places: (4046352,1447428) 0
  $xxRMC floating point degree coordinates and speed: (40.772529602,14.790466308) 0.000000000
RECEIVED:  "$GNGSA,A,1,,,,,,,,,,,,,99.0,99.0,99.0*1E
"
RECEIVED:  "$GPGSV,3,1,10,27,85,000,,10,70,079,,08,47,313,,20,43,053,*73
"
  $xxGSV: message 1 of 3
  $xxGSV: sattelites in view: 10
  $xxGSV: sat nr 27, elevation: 85, azimuth: 0, snr: 0 dbm
  $xxGSV: sat nr 10, elevation: 70, azimuth: 79, snr: 0 dbm
  $xxGSV: sat nr 8, elevation: 47, azimuth: 313, snr: 0 dbm
  $xxGSV: sat nr 20, elevation: 43, azimuth: 53, snr: 0 dbm
RECEIVED:  "$GLGSV,2,1,08,65,57,137,,88,55,345,,87,47,072,,72,45,051,*61
"
  $xxGSV: message 1 of 2
  $xxGSV: sattelites in view: 8
  $xxGSV: sat nr 65, elevation: 57, azimuth: 137, snr: 0 dbm
  $xxGSV: sat nr 88, elevation: 55, azimuth: 345, snr: 0 dbm
  $xxGSV: sat nr 87, elevation: 47, azimuth: 72, snr: 0 dbm
  $xxGSV: sat nr 72, elevation: 45, azimuth: 51, snr: 0 dbm
RECEIVED:  "$PSTMCPU,27.47,-1,49*49
"
  $xxxxx sentence is not valid
RECEIVED:  "$GPRMC,143037.000,V,4046.35185,N,01447.42800,E,0.0,0.0,120718,,,N*7D
"
$xxRMC: raw coordinates and speed: (40.772533416,14.790467262) 0/10
  $xxRMC fixed-point coordinates and speed scaled to three decimal places: (4046352,1447428) 0
  $xxRMC floating point degree coordinates and speed: (40.772529602,14.790466308) 0.000000000
RECEIVED:  "$GNGSA,A,1,,,,,,,,,,,,,99.0,99.0,99.0*1E
"
RECEIVED:  "$GPGSV,3,1,10,27,85,000,,10,70,079,,08,47,313,,20,43,053,*73
"
  $xxGSV: message 1 of 3
  $xxGSV: sattelites in view: 10
  $xxGSV: sat nr 27, elevation: 85, azimuth: 0, snr: 0 dbm
  $xxGSV: sat nr 10, elevation: 70, azimuth: 79, snr: 0 dbm
  $xxGSV: sat nr 8, elevation: 47, azimuth: 313, snr: 0 dbm
  $xxGSV: sat nr 20, elevation: 43, azimuth: 53, snr: 0 dbm
RECEIVED:  "$GLGSV,2,1,08,65,57,137,,88,55,345,,87,47,072,,72,45,051,*61
"
  $xxGSV: message 1 of 2
  $xxGSV: sattelites in view: 8
  $xxGSV: sat nr 65, elevation: 57, azimuth: 137, snr: 0 dbm
  $xxGSV: sat nr 88, elevation: 55, azimuth: 345, snr: 0 dbm
  $xxGSV: sat nr 87, elevation: 47, azimuth: 72, snr: 0 dbm
  $xxGSV: sat nr 72, elevation: 45, azimuth: 51, snr: 0 dbm
RECEIVED:  "$PSTMCPU,20.30,-1,49*4E
"
  $xxxxx sentence is not valid
RECEIVED:  "$GPRMC,143038.000,V,4046.35185,N,01447.42800,E,0.0,0.0,120718,,,N*72
"
$xxRMC: raw coordinates and speed: (40.772533416,14.790467262) 0/10
  $xxRMC fixed-point coordinates and speed scaled to three decimal places: (4046352,1447428) 0
  $xxRMC floating point degree coordinates and speed: (40.772529602,14.790466308) 0.000000000
RECEIVED:  "$GNGSA,A,1,,,,,,,,,,,,,99.0,99.0,99.0*1E
"
RECEIVED:  "$GPGSV,3,1,10,27,85,000,,10,70,079,,08,47,313,,20,43,053,*73
"
  $xxGSV: message 1 of 3
  $xxGSV: sattelites in view: 10
  $xxGSV: sat nr 27, elevation: 85, azimuth: 0, snr: 0 dbm
  $xxGSV: sat nr 10, elevation: 70, azimuth: 79, snr: 0 dbm
  $xxGSV: sat nr 8, elevation: 47, azimuth: 313, snr: 0 dbm
  $xxGSV: sat nr 20, elevation: 43, azimuth: 53, snr: 0 dbm
RECEIVED:  "$GLGSV,2,1,08,65,57,137,,88,55,345,,87,47,072,,72,45,051,*61
"
  $xxGSV: message 1 of 2
  $xxGSV: sattelites in view: 8
  $xxGSV: sat nr 65, elevation: 57, azimuth: 137, snr: 0 dbm
  $xxGSV: sat nr 88, elevation: 55, azimuth: 345, snr: 0 dbm
  $xxGSV: sat nr 87, elevation: 47, azimuth: 72, snr: 0 dbm
  $xxGSV: sat nr 72, elevation: 45, azimuth: 51, snr: 0 dbm
RECEIVED:  "$PSTMCPU,24.19,-1,49*41
"
  $xxxxx sentence is not valid
RECEIVED:  "$GPRMC,143039.000,V,4046.35185,N,01447.42800,E,0.0,0.0,120718,,,N*73
"
$xxRMC: raw coordinates and speed: (40.772533416,14.790467262) 0/10
  $xxRMC fixed-point coordinates and speed scaled to three decimal places: (4046352,1447428) 0
  $xxRMC floating point degree coordinates and speed: (40.772529602,14.790466308) 0.000000000
RECEIVED:  "$GNGSA,A,1,,,,,,,,,,,,,99.0,99.0,99.0*1E
"
RECEIVED:  "$GPGSV,3,1,10,27,85,000,,10,70,079,,08,47,313,,20,43,053,*73
"
  $xxGSV: message 1 of 3
  $xxGSV: sattelites in view: 10
  $xxGSV: sat nr 27, elevation: 85, azimuth: 0, snr: 0 dbm
  $xxGSV: sat nr 10, elevation: 70, azimuth: 79, snr: 0 dbm
  $xxGSV: sat nr 8, elevation: 47, azimuth: 313, snr: 0 dbm
  $xxGSV: sat nr 20, elevation: 43, azimuth: 53, snr: 0 dbm
RECEIVED:  "$GLGSV,2,1,08,65,57,137,,88,55,346,,87,47,072,,72,45,051,*62
"
  $xxGSV: message 1 of 2
  $xxGSV: sattelites in view: 8
  $xxGSV: sat nr 65, elevation: 57, azimuth: 137, snr: 0 dbm
  $xxGSV: sat nr 88, elevation: 55, azimuth: 346, snr: 0 dbm
  $xxGSV: sat nr 87, elevation: 47, azimuth: 72, snr: 0 dbm
  $xxGSV: sat nr 72, elevation: 45, azimuth: 51, snr: 0 dbm
RECEIVED:  "$PSTMCPU,23.14,-1,49*4B
"
  $xxxxx sentence is not valid
RECEIVED:  "$GPRMC,143040.000,V,4046.35185,N,01447.42800,E,0.0,0.0,120718,,,N*7D
"
$xxRMC: raw coordinates and speed: (40.772533416,14.790467262) 0/10
  $xxRMC fixed-point coordinates and speed scaled to three decimal places: (4046352,1447428) 0
  $xxRMC floating point degree coordinates and speed: (40.772529602,14.790466308) 0.000000000
RECEIVED:  "$GNGSA,A,1,,,,,,,,,,,,,99.0,99.0,99.0*1E
"
RECEIVED:  "$GPGSV,3,1,10,27,85,000,,10,70,079,,08,47,313,,20,43,053,*73
"
  $xxGSV: message 1 of 3
  $xxGSV: sattelites in view: 10
  $xxGSV: sat nr 27, elevation: 85, azimuth: 0, snr: 0 dbm
  $xxGSV: sat nr 10, elevation: 70, azimuth: 79, snr: 0 dbm
  $xxGSV: sat nr 8, elevation: 47, azimuth: 313, snr: 0 dbm
  $xxGSV: sat nr 20, elevation: 43, azimuth: 53, snr: 0 dbm
RECEIVED:  "$GLGSV,2,1,08,65,57,137,,88,55,346,,87,47,072,,72,45,051,*62
"
  $xxGSV: message 1 of 2
  $xxGSV: sattelites in view: 8
  $xxGSV: sat nr 65, elevation: 57, azimuth: 137, snr: 0 dbm
  $xxGSV: sat nr 88, elevation: 55, azimuth: 346, snr: 0 dbm
  $xxGSV: sat nr 87, elevation: 47, azimuth: 72, snr: 0 dbm
  $xxGSV: sat nr 72, elevation: 45, azimuth: 51, snr: 0 dbm
RECEIVED:  "$PSTMCPU,26.48,-1,49*47
"
  $xxxxx sentence is not valid
RECEIVED:  "$GPRMC,143041.000,V,4046.35185,N,01447.42800,E,0.0,0.0,120718,,,N*7C
"
$xxRMC: raw coordinates and speed: (40.772533416,14.790467262) 0/10
  $xxRMC fixed-point coordinates and speed scaled to three decimal places: (4046352,1447428) 0
  $xxRMC floating point degree coordinates and speed: (40.772529602,14.790466308) 0.000000000
RECEIVED:  "$GNGSA,A,1,,,,,,,,,,,,,99.0,99.0,99.0*1E
"
RECEIVED:  "$GPGSV,3,1,10,27,85,000,,10,70,079,,08,47,313,,20,43,053,*73
"
  $xxGSV: message 1 of 3
  $xxGSV: sattelites in view: 10
  $xxGSV: sat nr 27, elevation: 85, azimuth: 0, snr: 0 dbm
  $xxGSV: sat nr 10, elevation: 70, azimuth: 79, snr: 0 dbm
  $xxGSV: sat nr 8, elevation: 47, azimuth: 313, snr: 0 dbm
  $xxGSV: sat nr 20, elevation: 43, azimuth: 53, snr: 0 dbm
RECEIVED:  "$GLGSV,2,1,08,65,57,137,,88,55,346,,87,47,072,,72,45,051,*62
"
  $xxGSV: message 1 of 2
  $xxGSV: sattelites in view: 8
  $xxGSV: sat nr 65, elevation: 57, azimuth: 137, snr: 0 dbm
  $xxGSV: sat nr 88, elevation: 55, azimuth: 346, snr: 0 dbm
  $xxGSV: sat nr 87, elevation: 47, azimuth: 72, snr: 0 dbm
  $xxGSV: sat nr 72, elevation: 45, azimuth: 51, snr: 0 dbm
RECEIVED:  "$PSTMCPU,25.93,-1,49*42
"
  $xxxxx sentence is not valid
RECEIVED:  "$GPRMC,143042.000,V,4046.35185,N,01447.42800,E,0.0,0.0,120718,,,N*7F
"
$xxRMC: raw coordinates and speed: (40.772533416,14.790467262) 0/10
  $xxRMC fixed-point coordinates and speed scaled to three decimal places: (4046352,1447428) 0
  $xxRMC floating point degree coordinates and speed: (40.772529602,14.790466308) 0.000000000
RECEIVED:  "$GNGSA,A,1,,,,,,,,,,,,,99.0,99.0,99.0*1E
"
RECEIVED:  "$GPGSV,3,1,10,27,85,000,,10,70,079,,08,47,313,,20,43,053,*73
"
  $xxGSV: message 1 of 3
  $xxGSV: sattelites in view: 10
  $xxGSV: sat nr 27, elevation: 85, azimuth: 0, snr: 0 dbm
  $xxGSV: sat nr 10, elevation: 70, azimuth: 79, snr: 0 dbm
  $xxGSV: sat nr 8, elevation: 47, azimuth: 313, snr: 0 dbm
  $xxGSV: sat nr 20, elevation: 43, azimuth: 53, snr: 0 dbm
RECEIVED:  "$GLGSV,2,1,08,65,57,137,,88,55,346,,87,47,072,,72,45,051,*62
"
  $xxGSV: message 1 of 2
  $xxGSV: sattelites in view: 8
  $xxGSV: sat nr 65, elevation: 57, azimuth: 137, snr: 0 dbm
  $xxGSV: sat nr 88, elevation: 55, azimuth: 346, snr: 0 dbm
  $xxGSV: sat nr 87, elevation: 47, azimuth: 72, snr: 0 dbm
  $xxGSV: sat nr 72, elevation: 45, azimuth: 51, snr: 0 dbm
RECEIVED:  "$PSTMCPU,21.61,-1,49*4B
"
  $xxxxx sentence is not valid
RECEIVED:  "$GPRMC,143043.000,V,4046.35185,N,01447.42800,E,0.0,0.0,120718,,,N*7E
"
$xxRMC: raw coordinates and speed: (40.772533416,14.790467262) 0/10
  $xxRMC fixed-point coordinates and speed scaled to three deRECEIVED:  "$GPTXT,DEFAULT LIV CONFIGURATION*2B
"
  $xxxxx sentence is not valid
RECEIVED:  "$GPRMC,140248.560,V,4046.35185,N,01447.42800,E,0.0,0.0,120718,,,N*77
"
$xxRMC: raw coordinates and speed: (40.772533416,14.790467262) 0/10
  $xxRMC fixed-point coordinates and speed scaled to three decimal places: (4046352,1447428) 0
  $xxRMC floating point degree coordinates and speed: (40.772529602,14.790466308) 0.000000000
RECEIVED:  "$GNGSA,A,1,,,,,,,,,,,,,99.0,99.0,99.0*1E
"
RECEIVED:  "$GPGLL,4046.35185,N,01447.42800,E,140248.560,V,N*4D
"
  $xxGll: raw latitude,longitude and altitude: (40.772533416,14.790467262)
RECEIVED:  "$GPRMC,140249.000,V,4046.35185,N,01447.42800,E,0.0,0.0,120718,,,N*75
"
$xxRMC: raw coordinates and speed: (40.772533416,14.790467262) 0/10
  $xxRMC fixed-point coordinates and speed scaled to three decimal places: (4046352,1447428) 0
  $xxRMC floating point degree coordinates and speed: (40.772529602,14.790466308) 0.000000000
RECEIVED:  "$GNGSA,A,1,,,,,,,,,,,,,99.0,99.0,99.0*1E
"
RECEIVED:  "$GPGLL,4046.35185,N,01447.42800,E,140249.000,V,N*4F
"
  $xxGll: raw latitude,longitude and altitude: (40.772533416,14.790467262)
RECEIVED:  "$GPRMC,140250.000,V,4046.35185,N,01447.42800,E,0.0,0.0,120718,,,N*7D
"
$xxRMC: raw coordinates and speed: (40.772533416,14.790467262) 0/10
  $xxRMC fixed-point coordinates and speed scaled to three decimal places: (4046352,1447428) 0
  $xxRMC floating point degree coordinates and speed: (40.772529602,14.790466308) 0.000000000
RECEIVED:  "$GNGSA,A,1,,,,,,,,,,,,,99.0,99.0,99.0*1E
"
RECEIVED:  "$GPGLL,4046.35185,N,01447.42800,E,140250.000,V,N*47
"
  $xxGll: raw latitude,longitude and altitude: (40.772533416,14.790467262)
RECEIVED:  "$GPRMC,140251.000,V,4046.35185,N,01447.42800,E,0.0,0.0,120718,,,N*7C
"
$xxRMC: raw coordinates and speed: (40.772533416,14.790467262) 0/10
  $xxRMC fixed-point coordinates and speed scaled to three decimal places: (4046352,1447428) 0
  $xxRMC floating point degree coordinates and speed: (40.772529602,14.790466308) 0.000000000
RECEIVED:  "$GNGSA,A,1,,,,,,,,,,,,,99.0,99.0,99.0*1E
"
RECEIVED:  "$GPGLL,4046.35185,N,01447.42800,E,140251.000,V,N*46
"
  $xxGll: raw latitude,longitude and altitude: (40.772533416,14.790467262)
RECEIVED:  "$GPRMC,140252.000,V,4046.35185,N,01447.42800,E,0.0,0.0,120718,,,N*7F
"
$xxRMC: raw coordinates and speed: (40.772533416,14.790467262) 0/10
  $xxRMC fixed-point coordinates and speed scaled to three decimal places: (4046352,1447428) 0
  $xxRMC floating point degree coordinates and speed: (40.772529602,14.790466308) 0.000000000
RECEIVED:  "$GNGSA,A,1,,,,,,,,,,,,,99.0,99.0,99.0*1E
"
RECEIVED:  "$GPGLL,4046.35185,N,01447.42800,E,140252.000,V,N*45
"
  $xxGll: raw latitude,longitude and altitude: (40.772533416,14.790467262)
RECEIVED:  "$GPRMC,140253.000,V,4046.35185,N,01447.42800,E,0.0,0.0,120718,,,N*7E
"
$xxRMC: raw coordinates and speed: (40.772533416,14.790467262) 0/10
  $xxRMC fixed-point coordinates and speed scaled to three decimal places: (4046352,1447428) 0
  $xxRMC floating point degree coordinates and speed: (40.772529602,14.790466308) 0.000000000
RECEIVED:  "$GNGSA,A,1,,,,,,,,,,,,,99.0,99.0,99.0*1E
"
RECEIVED:  "$GPGLL,4046.35185,N,01447.42800,E,140253.000,V,N*44
"
  $xxGll: raw latitude,longitude and altitude: (40.772533416,14.790467262)
RECEIVED:  "$GPRMC,140254.000,V,4046.35185,N,01447.42800,E,0.0,0.0,120718,,,N*79
"
$xxRMC: raw coordinates and speed: (40.772533416,14.790467262) 0/10
  $xxRMC fixed-point coordinates and speed scaled to three decimal places: (4046352,1447428) 0
  $xxRMC floating point degree coordinates and speed: (40.772529602,14.790466308) 0.000000000
RECEIVED:  "$GNGSA,A,1,,,,,,,,,,,,,99.0,99.0,99.0*1E
"
RECEIVED:  "$GPGLL,4046.35185,N,01447.42800,E,140254.000,V,N*43
"
  $xxGll: raw latitude,longitude and altitude: (40.772533416,14.790467262)
RECEIVED:  "$GPRMC,140255.000,V,4046.35185,N,01447.42800,E,0.0,0.0,120718,,,N*78
"
$xxRMC: raw coordinates and speed: (40.772533416,14.790467262) 0/10
  $xxRMC fixed-point coordinates and speed scaled to three decimal places: (4046352,1447428) 0
  $xxRMC floating point degree coordinates and speed: (40.772529602,14.790466308) 0.000000000
RECEIVED:  "$GNGSA,A,1,,,,,,,,,,,,,99.0,99.0,99.0*1E
"
RECEIVED:  "$GPGLL,4046.35185,N,01447.42800,E,140255.000,V,N*42
"
  $xxGll: raw latitude,longitude and altitude: (40.772533416,14.790467262)
RECEIVED:  "$GPRMC,140256.000,V,4046.35185,N,01447.42800,E,0.0,0.0,120718,,,N*7B
"
$xxRMC: raw coordinates and speed: (40.772533416,14.790467262) 0/10
  $xxRMC fixed-point coordinates and speed scaled to three decimal places: (4046352,1447428) 0
  $xxRMC floating point degree coordinates and speed: (40.772529602,14.790466308) 0.000000000
RECEIVED:  "$GNGSA,A,1,,,,,,,,,,,,,99.0,99.0,99.0*1E
"
RECEIVED:  "$GPGLL,4046.35185,N,01447.42800,E,140256.000,V,N*41
"
  $xxGll: raw latitude,longitude and altitude: (40.772533416,14.790467262)
RECEIVED:  "$GPRMC,140257.000,V,4046.35185,N,01447.42800,E,0.0,0.0,120718,,,N*7A
"
$xxRMC: raw coordinates and speed: (40.772533416,14.790467262) 0/10
  $xxRMC fixed-point coordinates and speed scaled to three decimal places: (4046352,1447428) 0
  $xxRMC floating point degree coordinates and speed: (40.772529602,14.790466308) 0.000000000
RECEIVED:  "$GNGSA,A,1,,,,,,,,,,,,,99.0,99.0,99.0*1E
"
RECEIVED:  "$GPGLL,4046.35185,N,01447.42800,E,140257.000,V,N*40
"
  $xxGll: raw latitude,longitude and altitude: (40.772533416,14.790467262)
RECEIVED:  "$GPRMC,140258.000,V,4046.35185,N,01447.42800,E,0.0,0.0,120718,,,N*75
"
$xxRMC: raw coordinates and speed: (40.772533416,14.790467262) 0/10
  $xxRMC fixed-point coordinates and speed scaled to three decimal places: (4046352,1447428) 0
  $xxRMC floating point degree coordinates and speed: (40.772529602,14.790466308) 0.000000000
RECEIVED:  "$GNGSA,A,1,,,,,,,,,,,,,99.0,99.0,99.0*1E
"
RECEIVED:  "$GPGLL,4046.35185,N,01447.42800,E,140258.000,V,N*4F
"
  $xxGll: raw latitude,longitude and altitude: (40.772533416,14.790467262)
RECEIVED:  "$GPRMC,140259.000,V,4046.35185,N,01447.42800,E,0.0,0.0,120718,,,N*74
"
$xxRMC: raw coordinates and speed: (40.772533416,14.790467262) 0/10
  $xxRMC fixed-point coordinates and speed scaled to three decimal places: (4046352,1447428) 0
  $xxRMC floating point degree coordinates and speed: (40.772529602,14.790466308) 0.000000000
RECEIVED:  "$GNGSA,A,1,,,,,,,,,,,,,99.0,99.0,99.0*1E
"
RECEIVED:  "$GPGLL,4046.35185,N,01447.42800,E,140259.000,V,N*4E
"
  $xxGll: raw latitude,longitude and altitude: (40.772533416,14.790467262)
RECEIVED:  "$GPRMC,140300.000,V,4046.35185,N,01447.42800,E,0.0,0.0,120718,,,N*79
"
$xxRMC: raw coordinates and speed: (40.772533416,14.790467262) 0/10
  $xxRMC fixed-point coordinates and speed scaled to three decimal places: (4046352,1447428) 0
  $xxRMC floating point degree coordinates and speed: (40.772529602,14.790466308) 0.000000000
RECEIVED:  "$GNGSA,A,1,,,,,,,,,,,,,99.0,99.0,99.0*1E
"
RECEIVED:  "$GPGLL,4046.35185,N,01447.42800,E,140300.000,V,N*43
"
  $xxGll: raw latitude,longitude and altitude: (40.772533416,14.790467262)
RECEIVED:  "$GPRMC,140301.000,V,4046.35185,N,01447.42800,E,0.0,0.0,120718,,,N*78
"
$xxRMC: raw coordinates and speed: (40.772533416,14.790467262) 0/10
  $xxRMC fixed-point coordinates and speed scaled to three decimal places: (4046352,1447428) 0
  $xxRMC floating point degree coordinates and speed: (40.772529602,14.790466308) 0.000000000
RECEIVED:  "$GNGSA,A,1,,,,,,,,,,,,,99.0,99.0,99.0*1E
"
RECEIVED:  "$GPGLL,4046.35185,N,01447.42800,E,140301.000,V,N*42
"
  $xxGll: raw latitude,longitude and altitude: (40.772533416,14.790467262)
RECEIVED:  "$GPRMC,140302.000,V,4046.35185,N,01447.42800,E,0.0,0.0,120718,,,N*7B
"
$xxRMC: raw coordinates and speed: (40.772533416,14.790467262) 0/10
  $xxRMC fixed-point coordinates and speed scaled to three decimal places: (4046352,1447428) 0
  $xxRMC floating point degree coordinates and speed: (40.772529602,14.790466308) 0.000000000
RECEIVED:  "$GNGSA,A,1,,,,,,,,,,,,,99.0,99.0,99.0*1E
"
RECEIVED:  "$GPGLL,4046.35185,N,01447.42800,E,140302.000,V,N*41
"
  $xxGll: raw latitude,longitude and altitude: (40.772533416,14.790467262)
RECEIVED:  "$GPRMC,140303.000,V,4046.35185,N,01447.42800,E,0.0,0.0,120718,,,N*7A
"
$xxRMC: raw coordinates and speed: (40.772533416,14.790467262) 0/10
  $xxRMC fixed-point coordinates and speed scaled to three decimal places: (4046352,1447428) 0
  $xxRMC floating point degree coordinates and speed: (40.772529602,14.790466308) 0.000000000
RECEIVED:  "$GNGSA,A,1,,,,,,,,,,,,,99.0,99.0,99.0*1E
"
RECEIVED:  "$GPGLL,4046.35185,N,01447.42800,E,140303.000,V,N*40
"
  $xxGll: raw latitude,longitude and altitude: (40.772533416,14.790467262)
RECEIVED:  "$GPRMC,140304.000,V,4046.35185,N,01447.42800,E,0.0,0.0,120718,,,N*7D
"
$xxRMC: raw coordinates and speed: (40.772533416,14.790467262) 0/10
  $xxRMC fixed-point coordinates and speed scaled to three decimal places: (4046352,1447428) 0
  $xxRMC floating point degree coordinates and speed: (40.772529602,14.790466308) 0.000000000
RECEIVED:  "$GNGSA,A,1,,,,,,,,,,,,,99.0,99.0,99.0*1E
"
RECEIVED:  "$GPGLL,4046.35185,N,01447.42800,E,140304.000,V,N*47
"
  $xxGll: raw latitude,longitude and altitude: (40.772533416,14.790467262)
RECEIVED:  "$GPRMC,140305.000,V,4046.35185,N,01447.42800,E,0.0,0.0,120718,,,N*7C
"
$xxRMC: raw coordinates and speed: (40.772533416,14.790467262) 0/10
  $xxRMC fixed-point coordinates and speed scaled to three decimal places: (4046352,1447428) 0
  $xxRMC floating point degree coordinates and speed: (40.772529602,14.790466308) 0.000000000
RECEIVED:  "$GNGSA,A,1,,,,,,,,,,,,,99.0,99.0,99.0*1E
"
RECEIVED:  "$GPGLL,4046.35185,N,01447.42800,E,140305.000,V,N*46
"
  $xxGll: raw latitude,longitude and altitude: (40.772533416,14.790467262)
RECEIVED:  "$GPRMC,140306.000,V,4046.35185,N,01447.42800,E,0.0,0.0,120718,,,N*7F
"
$xxRMC: raw coordinates and speed: (40.772533416,14.790467262) 0/10
  $xxRMC fixed-point coordinates and speed scaled to three decimal places: (4046352,1447428) 0
  $xxRMC floating point degree coordinates and speed: (40.772529602,14.790466308) 0.000000000
RECEIVED:  "$GNGSA,A,1,,,,,,,,,,,,,99.0,99.0,99.0*1E
"
RECEIVED:  "$GPGLL,4046.35185,N,01447.42800,E,140306.000,V,N*45
"
  $xxGll: raw latitude,longitude and altitude: (40.772533416,14.790467262)
RECEIVED:  "$GPRMC,140307.000,V,4046.35185,N,01447.42800,E,0.0,0.0,120718,,,N*7E
"
$xxRMC: raw coordinates and speed: (40.772533416,14.790467262) 0/10
  $xxRMC fixed-point coordinates and speed scaled to three decimal places: (4046352,1447428) 0
  $xxRMC floating point degree coordinates and speed: (40.772529602,14.790466308) 0.000000000
RECEIVED:  "$GNGSA,A,1,,,,,,,,,,,,,99.0,99.0,99.0*1E
"
RECEIVED:  "$GPGLL,4046.35185,N,01447.42800,E,140307.000,V,N*44
"
  $xxGll: raw latitude,longitude and altitude: (40.772533416,14.790467262)
RECEIVED:  "$GPRMC,140308.000,V,4046.35185,N,01447.42800,E,0.0,0.0,120718,,,N*71
"
$xxRMC: raw coordinates and speed: (40.772533416,14.790467262) 0/10
  $xxRMC fixed-point coordinates and speed scaled to three decimal places: (4046352,1447428) 0
  $xxRMC floating point degree coordinates and speed: (40.772529602,14.790466308) 0.000000000
RECEIVED:  "$GNGSA,A,1,,,,,,,,,,,,,99.0,99.0,99.0*1E
"
RECEIVED:  "$GPGSV,1,1,02,10,71,119,,08,35,310,,,,,,,,,*79
"
  $xxGSV: message 1 of 1
  $xxGSV: sattelites in view: 2
  $xxGSV: sat nr 10, elevation: 71, azimuth: 119, snr: 0 dbm
  $xxGSV: sat nr 8, elevation: 35, azimuth: 310, snr: 0 dbm
  $xxGSV: sat nr 0, elevation: 0, azimuth: 0, snr: 0 dbm
  $xxGSV: sat nr 0, elevation: 0, azimuth: 0, snr: 0 dbm
RECEIVED:  "$PSTMCPU,17.59,-1,49*45
"
  $xxxxx sentence is not valid
RECEIVED:  "$GPRMC,140309.000,V,4046.35185,N,01447.42800,E,0.0,0.0,120718,,,N*70
"
$xxRMC: raw coordinates and speed: (40.772533416,14.790467262) 0/10
  $xxRMC fixed-point coordinates and speed scaled to three decimal places: (4046352,1447428) 0
  $xxRMC floating point degree coordinates and speed: (40.772529602,14.790466308) 0.000000000
RECEIVED:  "$GNGSA,A,1,,,,,,,,,,,,,99.0,99.0,99.0*1E
"
RECEIVED:  "$GPGSV,1,1,02,10,71,119,,08,35,310,,,,,,,,,*79
"
  $xxGSV: message 1 of 1
  $xxGSV: sattelites in view: 2
  $xxGSV: sat nr 10, elevation: 71, azimuth: 119, snr: 0 dbm
  $xxGSV: sat nr 8, elevation: 35, azimuth: 310, snr: 0 dbm
  $xxGSV: sat nr 0, elevation: 0, azimuth: 0, snr: 0 dbm
  $xxGSV: sat nr 0, elevation: 0, azimuth: 0, snr: 0 dbm
RECEIVED:  "$PSTMCPU,26.04,-1,49*4F
"
  $xxxxx sentence is not valid
RECEIVED:  "$GPRMC,140310.000,V,4046.35185,N,01447.42800,E,0.0,0.0,120718,,,N*78
"
$xxRMC: raw coordinates and speed: (40.772533416,14.790467262) 0/10
  $xxRMC fixed-point coordinates and speed scaled to three decimal places: (4046352,1447428) 0
  $xxRMC floating point degree coordinates and speed: (40.772529602,14.790466308) 0.000000000
RECEIVED:  "$GNGSA,A,1,,,,,,,,,,,,,99.0,99.0,99.0*1E
"
RECEIVED:  "$GPGSV,1,1,02,10,71,119,,08,35,310,,,,,,,,,*79
"
  $xxGSV: message 1 of 1
  $xxGSV: sattelites in view: 2
  $xxGSV: sat nr 10, elevation: 71, azimuth: 119, snr: 0 dbm
  $xxGSV: sat nr 8, elevation: 35, azimuth: 310, snr: 0 dbm
  $xxGSV: sat nr 0, elevation: 0, azimuth: 0, snr: 0 dbm
  $xxGSV: sat nr 0, elevation: 0, azimuth: 0, snr: 0 dbm
RECEIVED:  "$PSTMCPU,24.89,-1,49*48
"
  $xxxxx sentence is not valid
RECEIVED:  "$GPRMC,140311.000,V,4046.35185,N,01447.42800,E,0.0,0.0,120718,,,N*79
"
$xxRMC: raw coordinates and speed: (40.772533416,14.790467262) 0/10
  $xxRMC fixed-point coordinates and speed scaled to three decimal places: (4046352,1447428) 0
  $xxRMC floating point degree coordinates and speed: (40.772529602,14.790466308) 0.000000000
RECEIVED:  "$GNGSA,A,1,,,,,,,,,,,,,99.0,99.0,99.0*1E
"
RECEIVED:  "$GPGSV,1,1,02,10,71,119,,08,35,310,,,,,,,,,*79
"
  $xxGSV: message 1 of 1
  $xxGSV: sattelites in view: 2
  $xxGSV: sat nr 10, elevation: 71, azimuth: 119, snr: 0 dbm
  $xxGSV: sat nr 8, elevation: 35, azimuth: 310, snr: 0 dbm
  $xxGSV: sat nr 0, elevation: 0, azimuth: 0, snr: 0 dbm
  $xxGSV: sat nr 0, elevation: 0, azimuth: 0, snr: 0 dbm
RECEIVED:  "$PSTMCPU,21.99,-1,49*4C
"
  $xxxxx sentence is not valid
RECEIVED:  "$GPRMC,140312.000,V,4046.35185,N,01447.42800,E,0.0,0.0,120718,,,N*7A
"
$xxRMC: raw coordinates and speed: (40.772533416,14.790467262) 0/10
  $xxRMC fixed-point coordinates and speed scaled to three decimal places: (4046352,1447428) 0
  $xxRMC floating point degree coordinates and speed: (40.772529602,14.790466308) 0.000000000
RECEIVED:  "$GNGSA,A,1,,,,,,,,,,,,,99.0,99.0,99.0*1E
"
RECEIVED:  "$GPGSV,1,1,02,10,71,119,,08,35,310,,,,,,,,,*79
"
  $xxGSV: message 1 of 1
  $xxGSV: sattelites in view: 2
  $xxGSV: sat nr 10, elevation: 71, azimuth: 119, snr: 0 dbm
  $xxGSV: sat nr 8, elevation: 35, azimuth: 310, snr: 0 dbm
  $xxGSV: sat nr 0, elevation: 0, azimuth: 0, snr: 0 dbm
  $xxGSV: sat nr 0, elevation: 0, azimuth: 0, snr: 0 dbm
RECEIVED:  "$PSTMCPU,17.88,-1,49*49
"
  $xxxxx sentence is not valid
RECEIVED:  "$GPRMC,140313.000,V,4046.35185,N,01447.42800,E,0.0,0.0,120718,,,N*7B
"
$xxRMC: raw coordinates and speed: (40.772533416,14.790467262) 0/10
  $xxRMC fixed-point coordinates and speed scaled to three decimal places: (4046352,1447428) 0
  $xxRMC floating point degree coordinates and speed: (40.772529602,14.790466308) 0.000000000
RECEIVED:  "$GNGSA,A,1,,,,,,,,,,,,,99.0,99.0,99.0*1E
"
RECEIVED:  "$GPGSV,1,1,02,10,71,119,,08,35,310,,,,,,,,,*79
"
  $xxGSV: message 1 of 1
  $xxGSV: sattelites in view: 2
  $xxGSV: sat nr 10, elevation: 71, azimuth: 119, snr: 0 dbm
  $xxGSV: sat nr 8, elevation: 35, azimuth: 310, snr: 0 dbm
  $xxGSV: sat nr 0, elevation: 0, azimuth: 0, snr: 0 dbm
  $xxGSV: sat nr 0, elevation: 0, azimuth: 0, snr: 0 dbm
RECEIVED:  "$GPTXT,DEFAULT LIV CONFIGURATION*2B
"
  $xxxxx sentence is not valid
RECEIVED:  "$GPRMC,140248.560,V,4046.35185,N,01447.42800,E,0.0,0.0,120718,,,N*77
"
$xxRMC: raw coordinates and speed: (40.772533416,14.790467262) 0/10
  $xxRMC fixed-point coordinates and speed scaled to three decimal places: (4046352,1447428) 0
  $xxRMC floating point degree coordinates and speed: (40.772529602,14.790466308) 0.000000000
RECEIVED:  "$GNGSA,A,1,,,,,,,,,,,,,99.0,99.0,99.0*1E
"
RECEIVED:  "$GPGLL,4046.35185,N,01447.42800,E,140248.560,V,N*4D
"
  $xxGll: raw latitude,longitude and altitude: (40.772533416,14.790467262)
RECEIVED:  "$GPRMC,140249.000,V,4046.35185,N,01447.42800,E,0.0,0.0,120718,,,N*75
"
$xxRMC: raw coordinates and speed: (40.772533416,14.790467262) 0/10
  $xxRMC fixed-point coordinates and speed scaled to three decimal places: (4046352,1447428) 0
  $xxRMC floating point degree coordinates and speed: (40.772529602,14.790466308) 0.000000000
RECEIVED:  "$GNGSA,A,1,,,,,,,,,,,,,99.0,99.0,99.0*1E
"
RECEIVED:  "$GPGLL,4046.35185,N,01447.42800,E,140249.000,V,N*4F
"
  $xxGll: raw latitude,longitude and altitude: (40.772533416,14.790467262)
RECEIVED:  "$GPRMC,140250.000,V,4046.35185,N,01447.42800,E,0.0,0.0,120718,,,N*7D
"
$xxRMC: raw coordinates and speed: (40.772533416,14.790467262) 0/10
  $xxRMC fixed-point coordinates and speed scaled to three decimal places: (4046352,1447428) 0
  $xxRMC floating point degree coordinates and speed: (40.772529602,14.790466308) 0.000000000
RECEIVED:  "$GNGSA,A,1,,,,,,,,,,,,,99.0,99.0,99.0*1E
"
RECEIVED:  "$GPGLL,4046.35185,N,01447.42800,E,140250.000,V,N*47
"
  $xxGll: raw latitude,longitude and altitude: (40.772533416,14.790467262)
RECEIVED:  "$GPRMC,140251.000,V,4046.35185,N,01447.42800,E,0.0,0.0,120718,,,N*7C
"
$xxRMC: raw coordinates and speed: (40.772533416,14.790467262) 0/10
  $xxRMC fixed-point coordinates and speed scaled to three decimal places: (4046352,1447428) 0
  $xxRMC floating point degree coordinates and speed: (40.772529602,14.790466308) 0.000000000
RECEIVED:  "$GNGSA,A,1,,,,,,,,,,,,,99.0,99.0,99.0*1E
"
RECEIVED:  "$GPGLL,4046.35185,N,01447.42800,E,140251.000,V,N*46
"
  $xxGll: raw latitude,longitude and altitude: (40.772533416,14.790467262)
RECEIVED:  "$GPRMC,140252.000,V,4046.35185,N,01447.42800,E,0.0,0.0,120718,,,N*7F
"
$xxRMC: raw coordinates and speed: (40.772533416,14.790467262) 0/10
  $xxRMC fixed-point coordinates and speed scaled to three decimal places: (4046352,1447428) 0
  $xxRMC floating point degree coordinates and speed: (40.772529602,14.790466308) 0.000000000
RECEIVED:  "$GNGSA,A,1,,,,,,,,,,,,,99.0,99.0,99.0*1E
"
RECEIVED:  "$GPGLL,4046.35185,N,01447.42800,E,140252.000,V,N*45
"
  $xxGll: raw latitude,longitude and altitude: (40.772533416,14.790467262)
RECEIVED:  "$GPRMC,140253.000,V,4046.35185,N,01447.42800,E,0.0,0.0,120718,,,N*7E
"
$xxRMC: raw coordinates and speed: (40.772533416,14.790467262) 0/10
  $xxRMC fixed-point coordinates and speed scaled to three decimal places: (4046352,1447428) 0
  $xxRMC floating point degree coordinates and speed: (40.772529602,14.790466308) 0.000000000
RECEIVED:  "$GNGSA,A,1,,,,,,,,,,,,,99.0,99.0,99.0*1E
"
RECEIVED:  "$GPGLL,4046.35185,N,01447.42800,E,140253.000,V,N*44
"
  $xxGll: raw latitude,longitude and altitude: (40.772533416,14.790467262)
RECEIVED:  "$GPRMC,140254.000,V,4046.35185,N,01447.42800,E,0.0,0.0,120718,,,N*79
"
$xxRMC: raw coordinates and speed: (40.772533416,14.790467262) 0/10
  $xxRMC fixed-point coordinates and speed scaled to three decimal places: (4046352,1447428) 0
  $xxRMC floating point degree coordinates and speed: (40.772529602,14.790466308) 0.000000000
RECEIVED:  "$GNGSA,A,1,,,,,,,,,,,,,99.0,99.0,99.0*1E
"
RECEIVED:  "$GPGLL,4046.35185,N,01447.42800,E,140254.000,V,N*43
"
  $xxGll: raw latitude,longitude and altitude: (40.772533416,14.790467262)
RECEIVED:  "$GPRMC,140255.000,V,4046.35185,N,01447.42800,E,0.0,0.0,120718,,,N*78
"
$xxRMC: raw coordinates and speed: (40.772533416,14.790467262) 0/10
  $xxRMC fixed-point coordinates and speed scaled to three decimal places: (4046352,1447428) 0
  $xxRMC floating point degree coordinates and speed: (40.772529602,14.790466308) 0.000000000
RECEIVED:  "$GNGSA,A,1,,,,,,,,,,,,,99.0,99.0,99.0*1E
"
RECEIVED:  "$GPGLL,4046.35185,N,01447.42800,E,140255.000,V,N*42
"
  $xxGll: raw latitude,longitude and altitude: (40.772533416,14.790467262)
RECEIVED:  "$GPRMC,140256.000,V,4046.35185,N,01447.42800,E,0.0,0.0,120718,,,N*7B
"
$xxRMC: raw coordinates and speed: (40.772533416,14.790467262) 0/10
  $xxRMC fixed-point coordinates and speed scaled to three decimal places: (4046352,1447428) 0
  $xxRMC floating point degree coordinates and speed: (40.772529602,14.790466308) 0.000000000
RECEIVED:  "$GNGSA,A,1,,,,,,,,,,,,,99.0,99.0,99.0*1E
"
RECEIVED:  "$GPGLL,4046.35185,N,01447.42800,E,140256.000,V,N*41
"
  $xxGll: raw latitude,longitude and altitude: (40.772533416,14.790467262)
RECEIVED:  "$GPRMC,140257.000,V,4046.35185,N,01447.42800,E,0.0,0.0,120718,,,N*7A
"
$xxRMC: raw coordinates and speed: (40.772533416,14.790467262) 0/10
  $xxRMC fixed-point coordinates and speed scaled to three decimal places: (4046352,1447428) 0
  $xxRMC floating point degree coordinates and speed: (40.772529602,14.790466308) 0.000000000
RECEIVED:  "$GNGSA,A,1,,,,,,,,,,,,,99.0,99.0,99.0*1E
"
RECEIVED:  "$GPGLL,4046.35185,N,01447.42800,E,140257.000,V,N*40
"
  $xxGll: raw latitude,longitude and altitude: (40.772533416,14.790467262)
RECEIVED:  "$GPRMC,140258.000,V,4046.35185,N,01447.42800,E,0.0,0.0,120718,,,N*75
"
$xxRMC: raw coordinates and speed: (40.772533416,14.790467262) 0/10
  $xxRMC fixed-point coordinates and speed scaled to three decimal places: (4046352,1447428) 0
  $xxRMC floating point degree coordinates and speed: (40.772529602,14.790466308) 0.000000000
RECEIVED:  "$GNGSA,A,1,,,,,,,,,,,,,99.0,99.0,99.0*1E
"
RECEIVED:  "$GPGLL,4046.35185,N,01447.42800,E,140258.000,V,N*4F
"
  $xxGll: raw latitude,longitude and altitude: (40.772533416,14.790467262)
RECEIVED:  "$GPRMC,140259.000,V,4046.35185,N,01447.42800,E,0.0,0.0,120718,,,N*74
"
$xxRMC: raw coordinates and speed: (40.772533416,14.790467262) 0/10
  $xxRMC fixed-point coordinates and speed scaled to three decimal places: (4046352,1447428) 0
  $xxRMC floating point degree coordinates and speed: (40.772529602,14.790466308) 0.000000000
RECEIVED:  "$GNGSA,A,1,,,,,,,,,,,,,99.0,99.0,99.0*1E
"
RECEIVED:  "$GPGLL,4046.35185,N,01447.42800,E,140259.000,V,N*4E
"
  $xxGll: raw latitude,longitude and altitude: (40.772533416,14.790467262)
RECEIVED:  "$GPRMC,140300.000,V,4046.35185,N,01447.42800,E,0.0,0.0,120718,,,N*79
"
$xxRMC: raw coordinates and speed: (40.772533416,14.790467262) 0/10
  $xxRMC fixed-point coordinates and speed scaled to three decimal places: (4046352,1447428) 0
  $xxRMC floating point degree coordinates and speed: (40.772529602,14.790466308) 0.000000000
RECEIVED:  "$GNGSA,A,1,,,,,,,,,,,,,99.0,99.0,99.0*1E
"
RECEIVED:  "$GPGLL,4046.35185,N,01447.42800,E,140300.000,V,N*43
"
  $xxGll: raw latitude,longitude and altitude: (40.772533416,14.790467262)
RECEIVED:  "$GPRMC,140301.000,V,4046.35185,N,01447.42800,E,0.0,0.0,120718,,,N*78
"
$xxRMC: raw coordinates and speed: (40.772533416,14.790467262) 0/10
  $xxRMC fixed-point coordinates and speed scaled to three decimal places: (4046352,1447428) 0
  $xxRMC floating point degree coordinates and speed: (40.772529602,14.790466308) 0.000000000
RECEIVED:  "$GNGSA,A,1,,,,,,,,,,,,,99.0,99.0,99.0*1E
"
RECEIVED:  "$GPGLL,4046.35185,N,01447.42800,E,140301.000,V,N*42
"
  $xxGll: raw latitude,longitude and altitude: (40.772533416,14.790467262)
RECEIVED:  "$GPRMC,140302.000,V,4046.35185,N,01447.42800,E,0.0,0.0,120718,,,N*7B
"
$xxRMC: raw coordinates and speed: (40.772533416,14.790467262) 0/10
  $xxRMC fixed-point coordinates and speed scaled to three decimal places: (4046352,1447428) 0
  $xxRMC floating point degree coordinates and speed: (40.772529602,14.790466308) 0.000000000
RECEIVED:  "$GNGSA,A,1,,,,,,,,,,,,,99.0,99.0,99.0*1E
"
RECEIVED:  "$GPGLL,4046.35185,N,01447.42800,E,140302.000,V,N*41
"
  $xxGll: raw latitude,longitude and altitude: (40.772533416,14.790467262)
RECEIVED:  "$GPRMC,140303.000,V,4046.35185,N,01447.42800,E,0.0,0.0,120718,,,N*7A
"
$xxRMC: raw coordinates and speed: (40.772533416,14.790467262) 0/10
  $xxRMC fixed-point coordinates and speed scaled to three decimal places: (4046352,1447428) 0
  $xxRMC floating point degree coordinates and speed: (40.772529602,14.790466308) 0.000000000
RECEIVED:  "$GNGSA,A,1,,,,,,,,,,,,,99.0,99.0,99.0*1E
"
RECEIVED:  "$GPGLL,4046.35185,N,01447.42800,E,140303.000,V,N*40
"
  $xxGll: raw latitude,longitude and altitude: (40.772533416,14.790467262)
RECEIVED:  "$GPRMC,140304.000,V,4046.35185,N,01447.42800,E,0.0,0.0,120718,,,N*7D
"
$xxRMC: raw coordinates and speed: (40.772533416,14.790467262) 0/10
  $xxRMC fixed-point coordinates and speed scaled to three decimal places: (4046352,1447428) 0
  $xxRMC floating point degree coordinates and speed: (40.772529602,14.790466308) 0.000000000
RECEIVED:  "$GNGSA,A,1,,,,,,,,,,,,,99.0,99.0,99.0*1E
"
RECEIVED:  "$GPGLL,4046.35185,N,01447.42800,E,140304.000,V,N*47
"
  $xxGll: raw latitude,longitude and altitude: (40.772533416,14.790467262)
RECEIVED:  "$GPRMC,140305.000,V,4046.35185,N,01447.42800,E,0.0,0.0,120718,,,N*7C
"
$xxRMC: raw coordinates and speed: (40.772533416,14.790467262) 0/10
  $xxRMC fixed-point coordinates and speed scaled to three decimal places: (4046352,1447428) 0
  $xxRMC floating point degree coordinates and speed: (40.772529602,14.790466308) 0.000000000
RECEIVED:  "$GNGSA,A,1,,,,,,,,,,,,,99.0,99.0,99.0*1E
"
RECEIVED:  "$GPGLL,4046.35185,N,01447.42800,E,140305.000,V,N*46
"
  $xxGll: raw latitude,longitude and altitude: (40.772533416,14.790467262)
RECEIVED:  "$GPRMC,140306.000,V,4046.35185,N,01447.42800,E,0.0,0.0,120718,,,N*7F
"
$xxRMC: raw coordinates and speed: (40.772533416,14.790467262) 0/10
  $xxRMC fixed-point coordinates and speed scaled to three decimal places: (4046352,1447428) 0
  $xxRMC floating point degree coordinates and speed: (40.772529602,14.790466308) 0.000000000
RECEIVED:  "$GNGSA,A,1,,,,,,,,,,,,,99.0,99.0,99.0*1E
"
RECEIVED:  "$GPGLL,4046.35185,N,01447.42800,E,140306.000,V,N*45
"
  $xxGll: raw latitude,longitude and altitude: (40.772533416,14.790467262)
RECEIVED:  "$GPRMC,140307.000,V,4046.35185,N,01447.42800,E,0.0,0.0,120718,,,N*7E
"
$xxRMC: raw coordinates and speed: (40.772533416,14.790467262) 0/10
  $xxRMC fixed-point coordinates and speed scaled to three decimal places: (4046352,1447428) 0
  $xxRMC floating point degree coordinates and speed: (40.772529602,14.790466308) 0.000000000
RECEIVED:  "$GNGSA,A,1,,,,,,,,,,,,,99.0,99.0,99.0*1E
"
RECEIVED:  "$GPGLL,4046.35185,N,01447.42800,E,140307.000,V,N*44
"
  $xxGll: raw latitude,longitude and altitude: (40.772533416,14.790467262)
RECEIVED:  "$GPRMC,140308.000,V,4046.35185,N,01447.42800,E,0.0,0.0,120718,,,N*71
"
$xxRMC: raw coordinates and speed: (40.772533416,14.790467262) 0/10
  $xxRMC fixed-point coordinates and speed scaled to three decimal places: (4046352,1447428) 0
  $xxRMC floating point degree coordinates and speed: (40.772529602,14.790466308) 0.000000000
RECEIVED:  "$GNGSA,A,1,,,,,,,,,,,,,99.0,99.0,99.0*1E
"
RECEIVED:  "$GPGSV,1,1,02,10,71,119,,08,35,310,,,,,,,,,*79
"
  $xxGSV: message 1 of 1
  $xxGSV: sattelites in view: 2
  $xxGSV: sat nr 10, elevation: 71, azimuth: 119, snr: 0 dbm
  $xxGSV: sat nr 8, elevation: 35, azimuth: 310, snr: 0 dbm
  $xxGSV: sat nr 0, elevation: 0, azimuth: 0, snr: 0 dbm
  $xxGSV: sat nr 0, elevation: 0, azimuth: 0, snr: 0 dbm
RECEIVED:  "$PSTMCPU,17.63,-1,49*4C
"
  $xxxxx sentence is not valid
RECEIVED:  "$GPRMC,140309.000,V,4046.35185,N,01447.42800,E,0.0,0.0,120718,,,N*70
"
$xxRMC: raw coordinates and speed: (40.772533416,14.790467262) 0/10
  $xxRMC fixed-point coordinates and speed scaled to three decimal places: (4046352,1447428) 0
  $xxRMC floating point degree coordinates and speed: (40.772529602,14.790466308) 0.000000000
RECEIVED:  "$GNGSA,A,1,,,,,,,,,,,,,99.0,99.0,99.0*1E
"
RECEIVED:  "$GPGSV,1,1,02,10,71,119,,08,35,310,,,,,,,,,*79
"
  $xxGSV: message 1 of 1
  $xxGSV: sattelites in view: 2
  $xxGSV: sat nr 10, elevation: 71, azimuth: 119, snr: 0 dbm
  $xxGSV: sat nr 8, elevation: 35, azimuth: 310, snr: 0 dbm
  $xxGSV: sat nr 0, elevation: 0, azimuth: 0, snr: 0 dbm
  $xxGSV: sat nr 0, elevation: 0, azimuth: 0, snr: 0 dbm
RECEIVED:  "$PSTMCPU,26.07,-1,49*4C
"
  $xxxxx sentence is not valid
RECEIVED:  "$GPRMC,140310.000,V,4046.35185,N,01447.42800,E,0.0,0.0,120718,,,N*78
"
$xxRMC: raw coordinates and speed: (40.772533416,14.790467262) 0/10
  $xxRMC fixed-point coordinates and speed scaled to three decimal places: (4046352,1447428) 0
  $xxRMC floating point degree coordinates and speed: (40.772529602,14.790466308) 0.000000000
RECEIVED:  "$GNGSA,A,1,,,,,,,,,,,,,99.0,99.0,99.0*1E
"
RECEIVED:  "$GPGSV,1,1,02,10,71,119,,08,35,310,,,,,,,,,*79
"
  $xxGSV: message 1 of 1
  $xxGSV: sattelites in view: 2
  $xxGSV: sat nr 10, elevation: 71, azimuth: 119, snr: 0 dbm
  $xxGSV: sat nr 8, elevation: 35, azimuth: 310, snr: 0 dbm
  $xxGSV: sat nr 0, elevation: 0, azimuth: 0, snr: 0 dbm
  $xxGSV: sat nr 0, elevation: 0, azimuth: 0, snr: 0 dbm
RECEIVED:  "$PSTMCPU,26.22,-1,49*4B
"
  $xxxxx sentence is not valid
RECEIVED:  "$GPRMC,140311.000,V,4046.35185,N,01447.42800,E,0.0,0.0,120718,,,N*79
"
$xxRMC: raw coordinates and speed: (40.772533416,14.790467262) 0/10
  $xxRMC fixed-point coordinates and speed scaled to three decimal places: (4046352,1447428) 0
  $xxRMC floating point degree coordinates and speed: (40.772529602,14.790466308) 0.000000000
RECEIVED:  "$GNGSA,A,1,,,,,,,,,,,,,99.0,99.0,99.0*1E
"
RECEIVED:  "$GPGSV,1,1,02,10,71,119,,08,35,310,,,,,,,,,*79
"
  $xxGSV: message 1 of 1
  $xxGSV: sattelites in view: 2
  $xxGSV: sat nr 10, elevation: 71, azimuth: 119, snr: 0 dbm
  $xxGSV: sat nr 8, elevation: 35, azimuth: 310, snr: 0 dbm
  $xxGSV: sat nr 0, elevation: 0, azimuth: 0, snr: 0 dbm
  $xxGSV: sat nr 0, elevation: 0, azimuth: 0, snr: 0 dbm
RECEIVED:  "$PSTMCPU,23.51,-1,49*4A
"
  $xxxxx sentence is not valid
RECEIVED:  "$GPRMC,140312.000,V,4046.35185,N,01447.42800,E,0.0,0.0,120718,,,N*7A
"
$xxRMC: raw coordinates and speed: (40.772533416,14.790467262) 0/10
  $xxRMC fixed-point coordinates and speed scaled to three decimal places: (4046352,1447428) 0
  $xxRMC floating point degree coordinates and speed: (40.772529602,14.790466308) 0.000000000
RECEIVED:  "$GNGSA,A,1,,,,,,,,,,,,,99.0,99.0,99.0*1E
"
RECEIVED:  "$GPGSV,1,1,02,10,71,119,,08,35,310,,,,,,,,,*79
"
  $xxGSV: message 1 of 1
  $xxGSV: sattelites in view: 2
  $xxGSV: sat nr 10, elevation: 71, azimuth: 119, snr: 0 dbm
  $xxGSV: sat nr 8, elevation: 35, azimuth: 310, snr: 0 dbm
  $xxGSV: sat nr 0, elevation: 0, azimuth: 0, snr: 0 dbm
  $xxGSV: sat nr 0, elevation: 0, azimuth: 0, snr: 0 dbm
RECEIVED:  "$PSTMCPU,19.35,-1,49*41
"
  $xxxxx sentence is not valid
RECEIVED:  "$GPRMC,140313.000,V,4046.35185,N,01447.42800,E,0.0,0.0,120718,,,N*7B
"
$xxRMC: raw coordinates and speed: (40.772533416,14.790467262) 0/10
  $xxRMC fixed-point coordinates and speed scaled to three decimal places: (4046352,1447428) 0
  $xxRMC floating point degree coordinates and speed: (40.772529602,14.790466308) 0.000000000
RECEIVED:  "$GNGSA,A,1,,,,,,,,,,,,,99.0,99.0,99.0*1E
"
RECEIVED:  "$GPGSV,1,1,02,10,71,119,,08,35,310,,,,,,,,,*79
"
  $xxGSV: message 1 of 1
  $xxGSV: sattelites in view: 2
  $xxGSV: sat nr 10, elevation: 71, azimuth: 119, snr: 0 dbm
  $xxGSV: sat nr 8, elevation: 35, azimuth: 310, snr: 0 dbm
  $xxGSV: sat nr 0, elevation: 0, azimuth: 0, snr: 0 dbm
  $xxGSV: sat nr 0, elevation: 0, azimuth: 0, snr: 0 dbm
RECEIVED:  "$PSTMCPU,24.50,-1,49*4C
"
  $xxxxx sentence is not valid
RECEIVED:  "$GPRMC,140314.000,V,4046.35185,N,01447.42800,E,0.0,0.0,120718,,,N*7C
"
$xxRMC: raw coordinates and speed: (40.772533416,14.790467262) 0/10
  $xxRMC fixed-point coordinates and speed scaled to three decimal places: (4046352,1447428) 0
  $xxRMC floating point degree coordinates and speed: (40.772529602,14.790466308) 0.000000000
RECEIVED:  "$GNGSA,A,1,,,,,,,,,,,,,99.0,99.0,99.0*1E
"
RECEIVED:  "$GPGSV,1,1,02,10,71,119,,08,35,310,,,,,,,,,*79
"
  $xxGSV: message 1 of 1
  $xxGSV: sattelites in view: 2
  $xxGSV: sat nr 10, elevation: 71, azimuth: 119, snr: 0 dbm
  $xxGSV: sat nr 8, elevation: 35, azimuth: 310, snr: 0 dbm
  $xxGSV: sat nr 0, elevation: 0, azimuth: 0, snr: 0 dbm
  $xxGSV: sat nr 0, elevation: 0, azimuth: 0, snr: 0 dbm
RECEIVED:  "$PSTMCPU,30.68,-1,49*42
"
  $xxxxx sentence is not valid
RECEIVED:  "$GPRMC,140315.000,V,4046.35185,N,01447.42800,E,0.0,0.0,120718,,,N*7D
"
$xxRMC: raw coordinates and speed: (40.772533416,14.790467262) 0/10
  $xxRMC fixed-point coordinates and speed scaled to three decimal places: (4046352,1447428) 0
  $xxRMC floating point degree coordinates and speed: (40.772529602,14.790466308) 0.000000000
RECEIVED:  "$GNGSA,A,1,,,,,,,,,,,,,99.0,99.0,99.0*1E
"
RECEIVED:  "$GPGSV,1,1,02,10,71,119,,08,35,310,,,,,,,,,*79
"
  $xxGSV: message 1 of 1
  $xxGSV: sattelites in view: 2
  $xxGSV: sat nr 10, elevation: 71, azimuth: 119, snr: 0 dbm
  $xxGSV: sat nr 8, elevation: 35, azimuth: 310, snr: 0 dbm
  $xxGSV: sat nr 0, elevation: 0, azimuth: 0, snr: 0 dbm
  $xxGSV: sat nr 0, elevation: 0, azimuth: 0, snr: 0 dbm
RECEIVED:  "$PSTMCPU,20.84,-1,49*41
"
  $xxxxx sentence is not valid
RECEIVED:  "$GPRMC,140316.000,V,4046.35185,N,01447.42800,E,0.0,0.0,120718,,,N*7E
"
$xxRMC: raw coordinates and speed: (40.772533416,14.790467262) 0/10
  $xxRMC fixed-point coordinates and speed scaled to three decimal places: (4046352,1447428) 0
  $xxRMC floating point degree coordinates and speed: (40.772529602,14.790466308) 0.000000000
RECEIVED:  "$GNGSA,A,1,,,,,,,,,,,,,99.0,99.0,99.0*1E
"
RECEIVED:  "$GPGSV,1,1,02,10,71,119,,08,35,310,,,,,,,,,*79
"
  $xxGSV: message 1 of 1
  $xxGSV: sattelites in view: 2
  $xxGSV: sat nr 10, elevation: 71, azimuth: 119, snr: 0 dbm
  $xxGSV: sat nr 8, elevation: 35, azimuth: 310, snr: 0 dbm
  $xxGSV: sat nr 0, elevation: 0, azimuth: 0, snr: 0 dbm
  $xxGSV: sat nr 0, elevation: 0, azimuth: 0, snr: 0 dbm
RECEIVED:  "$PSTMCPU,19.15,-1,49*43
"
  $xxxxx sentence is not valid
RECEIVED:  "$GPRMC,140317.000,V,4046.35185,N,01447.42800,E,0.0,0.0,120718,,,N*7F
"
$xxRMC: raw coordinates and speed: (40.772533416,14.790467262) 0/10
  $xxRMC fixed-point coordinates and speed scaled to three decimal places: (4046352,1447428) 0
  $xxRMC floating point degree coordinates and speed: (40.772529602,14.790466308) 0.000000000
RECEIVED:  "$GNGSA,A,1,,,,,,,,,,,,,99.0,99.0,99.0*1E
"
RECEIVED:  "$GPGSV,1,1,02,10,71,119,,08,35,310,,,,,,,,,*79
"
  $xxGSV: message 1 of 1
  $xxGSV: sattelites in view: 2
  $xxGSV: sat nr 10, elevation: 71, azimuth: 119, snr: 0 dbm
  $xxGSV: sat nr 8, elevation: 35, azimuth: 310, snr: 0 dbm
  $xxGSV: sat nr 0, elevation: 0, azimuth: 0, snr: 0 dbm
  $xxGSV: sat nr 0, elevation: 0, azimuth: 0, snr: 0 dbm
RECEIVED:  "$PSTMCPU,26.06,-1,49*4D
"
  $xxxxx sentence is not valid
RECEIVED:  "$GPRMC,140318.000,V,4046.35185,N,01447.42800,E,0.0,0.0,120718,,,N*70
"
$xxRMC: raw coordinates and speed: (40.772533416,14.790467262) 0/10
  $xxRMC fixed-point coordinates and speed scaled to three decimal places: (4046352,1447428) 0
  $xxRMC floating point degree coordinates and speed: (40.772529602,14.790466308) 0.000000000
RECEIVED:  "$GNGSA,A,1,,,,,,,,,,,,,99.0,99.0,99.0*1E
"
RECEIVED:  "$GPGSV,1,1,03,10,71,119,,08,35,310,,15,08,042,,,,,*42
"
  $xxGSV: message 1 of 1
  $xxGSV: sattelites in view: 3
  $xxGSV: sat nr 10, elevation: 71, azimuth: 119, snr: 0 dbm
  $xxGSV: sat nr 8, elevation: 35, azimuth: 310, snr: 0 dbm
  $xxGSV: sat nr 15, elevation: 8, azimuth: 42, snr: 0 dbm
  $xxGSV: sat nr 0, elevation: 0, azimuth: 0, snr: 0 dbm
RECEIVED:  "$PSTMCPU,20.81,-1,49*44
"
  $xxxxx sentence is not valid
RECEIVED:  "$GPRMC,140319.000,V,4046.35185,N,01447.42800,E,0.0,0.0,120718,,,N*71
"
$xxRMC: raw coordinates and speed: (40.772533416,14.790467262) 0/10
  $xxRMC fixed-point coordinates and speed scaled to three decimal places: (4046352,1447428) 0
  $xxRMC floating point degree coordinates and speed: (40.772529602,14.790466308) 0.000000000
RECEIVED:  "$GNGSA,A,1,,,,,,,,,,,,,99.0,99.0,99.0*1E
"
RECEIVED:  "$GPGSV,1,1,03,10,71,119,,08,35,310,,15,08,042,,,,,*42
"
  $xxGSV: message 1 of 1
  $xxGSV: sattelites in view: 3
  $xxGSV: sat nr 10, elevation: 71, azimuth: 119, snr: 0 dbm
  $xxGSV: sat nr 8, elevation: 35, azimuth: 310, snr: 0 dbm
  $xxGSV: sat nr 15, elevation: 8, azimuth: 42, snr: 0 dbm
  $xxGSV: sat nr 0, elevation: 0, azimuth: 0, snr: 0 dbm
RECEIVED:  "$PSTMCPU,26.43,-1,49*4C
"
  $xxxxx sentence is not valid
RECEIVED:  "$GPRMC,140320.000,V,4046.35185,N,01447.42800,E,0.0,0.0,120718,,,N*7B
"
$xxRMC: raw coordinates and speed: (40.772533416,14.790467262) 0/10
  $xxRMC fixed-point coordinates and speed scaled to three decimal places: (4046352,1447428) 0
  $xxRMC floating point degree coordinates and speed: (40.772529602,14.790466308) 0.000000000
RECEIVED:  "$GNGSA,A,1,,,,,,,,,,,,,99.0,99.0,99.0*1E
"
RECEIVED:  "$GPGSV,1,1,03,10,71,119,,08,35,310,,15,08,042,,,,,*42
"
  $xxGSV: message 1 of 1
  $xxGSV: sattelites in view: 3
  $xxGSV: sat nr 10, elevation: 71, azimuth: 119, snr: 0 dbm
  $xxGSV: sat nr 8, elevation: 35, azimuth: 310, snr: 0 dbm
  $xxGSV: sat nr 15, elevation: 8, azimuth: 42, snr: 0 dbm
  $xxGSV: sat nr 0, elevation: 0, azimuth: 0, snr: 0 dbm
RECEIVED:  "$PSTMCPU,19.29,-1,49*4C
"
  $xxxxx sentence is not valid
RECEIVED:  "$GPRMC,140321.000,V,4046.35185,N,01447.42800,E,0.0,0.0,120718,,,N*7A
"
$xxRMC: raw coordinates and speed: (40.772533416,14.790467262) 0/10
  $xxRMC fixed-point coordinates and speed scaled to three decimal places: (4046352,1447428) 0
  $xxRMC floating point degree coordinates and speed: (40.772529602,14.790466308) 0.000000000
RECEIVED:  "$GNGSA,A,1,,,,,,,,,,,,,99.0,99.0,99.0*1E
"
RECEIVED:  "$GPGSV,1,1,03,10,71,119,,08,35,310,,15,08,042,,,,,*42
"
  $xxGSV: message 1 of 1
  $xxGSV: sattelites in view: 3
  $xxGSV: sat nr 10, elevation: 71, azimuth: 119, snr: 0 dbm
  $xxGSV: sat nr 8, elevation: 35, azimuth: 310, snr: 0 dbm
  $xxGSV: sat nr 15, elevation: 8, azimuth: 42, snr: 0 dbm
  $xxGSV: sat nr 0, elevation: 0, azimuth: 0, snr: 0 dbm
RECEIVED:  "$PSTMCPU,26.95,-1,49*47
"
  $xxxxx sentence is not valid
RECEIVED:  "$GPRMC,140322.000,V,4046.35185,N,01447.42800,E,0.0,0.0,120718,,,N*79
"
$xxRMC: raw coordinates and speed: (40.772533416,14.790467262) 0/10
  $xxRMC fixed-point coordinates and speed scaled to three decimal places: (4046352,1447428) 0
  $xxRMC floating point degree coordinates and speed: (40.772529602,14.790466308) 0.000000000
RECEIVED:  "$GNGSA,A,1,,,,,,,,,,,,,99.0,99.0,99.0*1E
"
RECEIVED:  "$GPGSV,1,1,03,10,71,119,,08,35,310,,15,08,042,,,,,*42
"
  $xxGSV: message 1 of 1
  $xxGSV: sattelites in view: 3
  $xxGSV: sat nr 10, elevation: 71, azimuth: 119, snr: 0 dbm
  $xxGSV: sat nr 8, elevation: 35, azimuth: 310, snr: 0 dbm
  $xxGSV: sat nr 15, elevation: 8, azimuth: 42, snr: 0 dbm
  $xxGSV: sat nr 0, elevation: 0, azimuth: 0, snr: 0 dbm
RECEIVED:  "$PSTMCPU,19.45,-1,49*46
"
  $xxxxx sentence is not valid
RECEIVED:  "$GPRMC,140323.000,V,4046.35185,N,01447.42800,E,0.0,0.0,120718,,,N*78
"
$xxRMC: raw coordinates and speed: (40.772533416,14.790467262) 0/10
  $xxRMC fixed-point coordinates and speed scaled to three decimal places: (4046352,1447428) 0
  $xxRMC floating point degree coordinates and speed: (40.772529602,14.790466308) 0.000000000
RECEIVED:  "$GNGSA,A,1,,,,,,,,,,,,,99.0,99.0,99.0*1E
"
RECEIVED:  "$GPGSV,1,1,03,10,71,119,,08,35,310,,15,08,042,,,,,*42
"
  $xxGSV: message 1 of 1
  $xxGSV: sattelites in view: 3
  $xxGSV: sat nr 10, elevation: 71, azimuth: 119, snr: 0 dbm
  $xxGSV: sat nr 8, elevation: 35, azimuth: 310, snr: 0 dbm
  $xxGSV: sat nr 15, elevation: 8, azimuth: 42, snr: 0 dbm
  $xxGSV: sat nr 0, elevation: 0, azimuth: 0, snr: 0 dbm
RECEIVED:  "$PSTMCPU,21.41,-1,49*49
"
  $xxxxx sentence is not valid
RECEIVED:  "$GPRMC,140324.000,V,4046.35185,N,01447.42800,E,0.0,0.0,120718,,,N*7F
"
$xxRMC: raw coordinates and speed: (40.772533416,14.790467262) 0/10
  $xxRMC fixed-point coordinates and speed scaled to three decimal places: (4046352,1447428) 0
  $xxRMC floating point degree coordinates and speed: (40.772529602,14.790466308) 0.000000000
RECEIVED:  "$GNGSA,A,1,,,,,,,,,,,,,99.0,99.0,99.0*1E
"
RECEIVED:  "$GPGSV,1,1,03,10,71,119,,08,35,310,,15,08,042,,,,,*42
"
  $xxGSV: message 1 of 1
  $xxGSV: sattelites in view: 3
  $xxGSV: sat nr 10, elevation: 71, azimuth: 119, snr: 0 dbm
  $xxGSV: sat nr 8, elevation: 35, azimuth: 310, snr: 0 dbm
  $xxGSV: sat nr 15, elevation: 8, azimuth: 42, snr: 0 dbm
  $xxGSV: sat nr 0, elevation: 0, azimuth: 0, snr: 0 dbm
RECEIVED:  "$PSTMCPU,23.22,-1,49*4E
"
  $xxxxx sentence is not valid
RECEIVED:  "$GPRMC,140325.000,V,4046.35185,N,01447.42800,E,0.0,0.0,120718,,,N*7E
"
$xxRMC: raw coordinates and speed: (40.772533416,14.790467262) 0/10
  $xxRMC fixed-point coordinates and speed scaled to three decimal places: (4046352,1447428) 0
  $xxRMC floating point degree coordinates and speed: (40.772529602,14.790466308) 0.000000000
RECEIVED:  "$GNGSA,A,1,,,,,,,,,,,,,99.0,99.0,99.0*1E
"
RECEIVED:  "$GPGSV,1,1,03,10,71,119,,08,35,310,,15,08,042,,,,,*42
"
  $xxGSV: message 1 of 1
  $xxGSV: sattelites in view: 3
  $xxGSV: sat nr 10, elevation: 71, azimuth: 119, snr: 0 dbm
  $xxGSV: sat nr 8, elevation: 35, azimuth: 310, snr: 0 dbm
  $xxGSV: sat nr 15, elevation: 8, azimuth: 42, snr: 0 dbm
  $xxGSV: sat nr 0, elevation: 0, azimuth: 0, snr: 0 dbm
RECEIVED:  "$PSTMCPU,28.90,-1,49*4C
"
  $xxxxx sentence is not valid
RECEIVED:  "$GPRMC,140326.000,V,4046.35185,N,01447.42800,E,0.0,0.0,120718,,,N*7D
"
$xxRMC: raw coordinates and speed: (40.772533416,14.790467262) 0/10
  $xxRMC fixed-point coordinates and speed scaled to three decimal places: (4046352,1447428) 0
  $xxRMC floating point degree coordinates and speed: (40.772529602,14.790466308) 0.000000000
RECEIVED:  "$GNGSA,A,1,,,,,,,,,,,,,99.0,99.0,99.0*1E
"
RECEIVED:  "$GPGSV,1,1,03,10,71,119,,08,35,310,,15,08,042,,,,,*42
"
  $xxGSV: message 1 of 1
  $xxGSV: sattelites in view: 3
  $xxGSV: sat nr 10, elevation: 71, azimuth: 119, snr: 0 dbm
  $xxGSV: sat nr 8, elevation: 35, azimuth: 310, snr: 0 dbm
  $xxGSV: sat nr 15, elevation: 8, azimuth: 42, snr: 0 dbm
  $xxGSV: sat nr 0, elevation: 0, azimuth: 0, snr: 0 dbm
RECEIVED:  "$PSTMCPU,18.03,-1,49*45
"
  $xxxxx sentence is not valid
RECEIVED:  "$GPRMC,140327.000,V,4046.35185,N,01447.42800,E,0.0,0.0,120718,,,N*7C
"
$xxRMC: raw coordinates and speed: (40.772533416,14.790467262) 0/10
  $xxRMC fixed-point coordinates and speed scaled to three decimal places: (4046352,1447428) 0
  $xxRMC floating point degree coordinates and speed: (40.772529602,14.790466308) 0.000000000
RECEIVED:  "$GNGSA,A,1,,,,,,,,,,,,,99.0,99.0,99.0*1E
"
RECEIVED:  "$GPGSV,1,1,03,10,71,119,,08,35,310,,15,08,042,,,,,*42
"
  $xxGSV: message 1 of 1
  $xxGSV: sattelites in view: 3
  $xxGSV: sat nr 10, elevation: 71, azimuth: 119, snr: 0 dbm
  $xxGSV: sat nr 8, elevation: 35, azimuth: 310, snr: 0 dbm
  $xxGSV: sat nr 15, elevation: 8, azimuth: 42, snr: 0 dbm
  $xxGSV: sat nr 0, elevation: 0, azimuth: 0, snr: 0 dbm
RECEIVED:  "$PSTMCPU,22.17,-1,49*49
"
  $xxxxx sentence is not valid
RECEIVED:  "$GPRMC,140328.000,V,4046.35185,N,01447.42800,E,0.0,0.0,120718,,,N*73
"
$xxRMC: raw coordinates and speed: (40.772533416,14.790467262) 0/10
  $xxRMC fixed-point coordinates and speed scaled to three decimal places: (4046352,1447428) 0
  $xxRMC floating point degree coordinates and speed: (40.772529602,14.790466308) 0.000000000
RECEIVED:  "$GNGSA,A,1,,,,,,,,,,,,,99.0,99.0,99.0*1E
"
RECEIVED:  "$GPGSV,2,1,06,10,71,119,,20,53,061,,16,48,205,,08,35,310,*71
"
  $xxGSV: message 1 of 2
  $xxGSV: sattelites in view: 6
  $xxGSV: sat nr 10, elevation: 71, azimuth: 119, snr: 0 dbm
  $xxGSV: sat nr 20, elevation: 53, azimuth: 61, snr: 0 dbm
  $xxGSV: sat nr 16, elevation: 48, azimuth: 205, snr: 0 dbm
  $xxGSV: sat nr 8, elevation: 35, azimuth: 310, snr: 0 dbm
RECEIVED:  "$GLGSV,2,2,05,81,07,295,,,,,,,,,,,,,*50
"
  $xxGSV: message 2 of 2
  $xxGSV: sattelites in view: 5
  $xxGSV: sat nr 81, elevation: 7, azimuth: 295, snr: 0 dbm
  $xxGSV: sat nr 0, elevation: 0, azimuth: 0, snr: 0 dbm
  $xxGSV: sat nr 0, elevation: 0, azimuth: 0, snr: 0 dbm
  $xxGSV: sat nr 0, elevation: 0, azimuth: 0, snr: 0 dbm
RECEIVED:  "$GPRMC,140329.000,V,4046.35185,N,01447.42800,E,0.0,0.0,120718,,,N*72
"
$xxRMC: raw coordinates and speed: (40.772533416,14.790467262) 0/10
  $xxRMC fixed-point coordinates and speed scaled to three decimal places: (4046352,1447428) 0
  $xxRMC floating point degree coordinates and speed: (40.772529602,14.790466308) 0.000000000
RECEIVED:  "$GNGSA,A,1,,,,,,,,,,,,,99.0,99.0,99.0*1E
"
RECEIVED:  "$GPGSV,2,1,06,10,71,119,,20,53,061,,16,48,205,,08,35,310,*71
"
  $xxGSV: message 1 of 2
  $xxGSV: sattelites in view: 6
  $xxGSV: sat nr 10, elevation: 71, azimuth: 119, snr: 0 dbm
  $xxGSV: sat nr 20, elevation: 53, azimuth: 61, snr: 0 dbm
  $xxGSV: sat nr 16, elevation: 48, azimuth: 205, snr: 0 dbm
  $xxGSV: sat nr 8, elevation: 35, azimuth: 310, snr: 0 dbm
RECEIVED:  "$GLGSV,2,2,05,81,07,295,,,,,,,,,,,,,*50
"
  $xxGSV: message 2 of 2
  $xxGSV: sattelites in view: 5
  $xxGSV: sat nr 81, elevation: 7, azimuth: 295, snr: 0 dbm
  $xxGSV: sat nr 0, elevation: 0, azimuth: 0, snr: 0 dbm
  $xxGSV: sat nr 0, elevation: 0, azimuth: 0, snr: 0 dbm
  $xxGSV: sat nr 0, elevation: 0, azimuth: 0, snr: 0 dbm
RECEIVED:  "$GPRMC,140330.000,V,4046.35185,N,01447.42800,E,0.0,0.0,120718,,,N*7A
"
$xxRMC: raw coordinates and speed: (40.772533416,14.790467262) 0/10
  $xxRMC fixed-point coordinates and speed scaled to three decimal places: (4046352,1447428) 0
  $xxRMC floating point degree coordinates and speed: (40.772529602,14.790466308) 0.000000000
RECEIVED:  "$GNGSA,A,1,,,,,,,,,,,,,99.0,99.0,99.0*1E
"
RECEIVED:  "$GPGSV,2,1,06,10,71,119,,20,53,061,,16,48,205,,08,35,310,*71
"
  $xxGSV: message 1 of 2
  $xxGSV: sattelites in view: 6
  $xxGSV: sat nr 10, elevation: 71, azimuth: 119, snr: 0 dbm
  $xxGSV: sat nr 20, elevation: 53, azimuth: 61, snr: 0 dbm
  $xxGSV: sat nr 16, elevation: 48, azimuth: 205, snr: 0 dbm
  $xxGSV: sat nr 8, elevation: 35, azimuth: 310, snr: 0 dbm
RECEIVED:  "$GLGSV,2,2,05,81,07,295,,,,,,,,,,,,,*50
"
  $xxGSV: message 2 of 2
  $xxGSV: sattelites in view: 5
  $xxGSV: sat nr 81, elevation: 7, azimuth: 295, snr: 0 dbm
  $xxGSV: sat nr 0, elevation: 0, azimuth: 0, snr: 0 dbm
  $xxGSV: sat nr 0, elevation: 0, azimuth: 0, snr: 0 dbm
  $xxGSV: sat nr 0, elevation: 0, azimuth: 0, snr: 0 dbm
RECEIVED:  "$GPRMC,140331.000,V,4046.35185,N,01447.42800,E,0.0,0.0,120718,,,N*7B
"
$xxRMC: raw coordinates and speed: (40.772533416,14.790467262) 0/10
  $xxRMC fixed-point coordinates and speed scaled to three decimal places: (4046352,1447428) 0
  $xxRMC floating point degree coordinates and speed: (40.772529602,14.790466308) 0.000000000
RECEIVED:  "$GNGSA,A,1,,,,,,,,,,,,,99.0,99.0,99.0*1E
"
RECEIVED:  "$GPGSV,2,1,06,10,71,119,,20,53,061,,16,48,205,,08,35,310,*71
"
  $xxGSV: message 1 of 2
  $xxGSV: sattelites in view: 6
  $xxGSV: sat nr 10, elevation: 71, azimuth: 119, snr: 0 dbm
  $xxGSV: sat nr 20, elevation: 53, azimuth: 61, snr: 0 dbm
  $xxGSV: sat nr 16, elevation: 48, azimuth: 205, snr: 0 dbm
  $xxGSV: sat nr 8, elevation: 35, azimuth: 310, snr: 0 dbm
RECEIVED:  "$GLGSV,2,2,05,81,07,295,,,,,,,,,,,,,*50
"
  $xxGSV: message 2 of 2
  $xxGSV: sattelites in view: 5
  $xxGSV: sat nr 81, elevation: 7, azimuth: 295, snr: 0 dbm
  $xxGSV: sat nr 0, elevation: 0, azimuth: 0, snr: 0 dbm
  $xxGSV: sat nr 0, elevation: 0, azimuth: 0, snr: 0 dbm
  $xxGSV: sat nr 0, elevation: 0, azimuth: 0, snr: 0 dbm
RECEIVED:  "$GPRMC,140332.000,V,4046.35185,N,01447.42800,E,0.0,0.0,120718,,,N*78
"
$xxRMC: raw coordinates and speed: (40.772533416,14.790467262) 0/10
  $xxRMC fixed-point coordinates and speed scaled to three decimal places: (4046352,1447428) 0
  $xxRMC floating point degree coordinates and speed: (40.772529602,14.790466308) 0.000000000
RECEIVED:  "$GNGSA,A,1,,,,,,,,,,,,,99.0,99.0,99.0*1E
"
RECEIVED:  "$GPGSV,2,1,06,10,71,119,,20,53,061,,16,48,205,,08,35,310,*71
"
  $xxGSV: message 1 of 2
  $xxGSV: sattelites in view: 6
  $xxGSV: sat nr 10, elevation: 71, azimuth: 119, snr: 0 dbm
  $xxGSV: sat nr 20, elevation: 53, azimuth: 61, snr: 0 dbm
  $xxGSV: sat nr 16, elevation: 48, azimuth: 205, snr: 0 dbm
  $xxGSV: sat nr 8, elevation: 35, azimuth: 310, snr: 0 dbm
RECEIVED:  "$GLGSV,2,2,05,81,07,295,,,,,,,,,,,,,*50
"
  $xxGSV: message 2 of 2
  $xxGSV: sattelites in view: 5
  $xxGSV: sat nr 81, elevation: 7, azimuth: 295, snr: 0 dbm
  $xxGSV: sat nr 0, elevation: 0, azimuth: 0, snr: 0 dbm
  $xxGSV: sat nr 0, elevation: 0, azimuth: 0, snr: 0 dbm
  $xxGSV: sat nr 0, elevation: 0, azimuth: 0, snr: 0 dbm
RECEIVED:  "$GPRMC,140333.000,V,4046.35185,N,01447.42800,E,0.0,0.0,120718,,,N*79
"
$xxRMC: raw coordinates and speed: (40.772533416,14.790467262) 0/10
  $xxRMC fixed-point coordinates and speed scaled to three decimal places: (4046352,1447428) 0
  $xxRMC floating point degree coordinates and speed: (40.772529602,14.790466308) 0.000000000
RECEIVED:  "$GNGSA,A,1,,,,,,,,,,,,,99.0,99.0,99.0*1E
"
RECEIVED:  "$GPGSV,2,1,06,10,71,119,,20,53,061,,16,48,205,,08,35,310,*71
"
