cimal places: (4046626,1447251) 100
$xxRMC floating point degree coordinates and speed: (40.777095794,14.787516593) 0.100000001
RECEIVED:$GNGSA,A,3,06,03,09,04,01,17,31,,,,,,1.3,0.8,1.1*2B
"
RECEIVED:$GPGSV,3,1,11,04,79,030,29,09,59,247,28,03,54,075,33,06,33,314,34*70
"
$xxGSV: message 1 of 3
$xxGSV: sattelites in view: 11
$xxGSV: sat nr 4, elevation: 79, azimuth: 30, snr: 29 dbm
$xxGSV: sat nr 9, elevation: 59, azimuth: 247, snr: 28 dbm
$xxGSV: sat nr 3, elevation: 54, azimuth: 75, snr: 33 dbm
$xxGSV: sat nr 6, elevation: 33, azimuth: 314, snr: 34 dbm
RECEIVED:$GLGSV,3,1,09,83,59,282,24,67,52,025,31,68,49,293,33,82,43,203,25*64
"
$xxGSV: message 1 of 3
$xxGSV: sattelites in view: 9
$xxGSV: sat nr 83, elevation: 59, azimuth: 282, snr: 24 dbm
$xxGSV: sat nr 67, elevation: 52, azimuth: 25, snr: 31 dbm
$xxGSV: sat nr 68, elevation: 49, azimuth: 293, snr: 33 dbm
$xxGSV: sat nr 82, elevation: 43, azimuth: 203, snr: 25 dbm
RECEIVED:$GPGLL,4046.62580,N,01447.25100,E,145533.000,A,A*53
"
$xxGll raw latitude,longitude and altitude: (40.777099609,14.787517547)
RECEIVED:$GPRMC,145534.000,A,4046.62580,N,01447.25100,E,0.1,0.0,040822,,,A*6E
"
$xxRMC: raw coordinates and speed: (40.777099609,14.787517547) 1/10
$xxRMC fixed-point coordinates and speed scaled to three decimal places: (4046626,1447251) 100
$xxRMC floating point degree coordinates and speed: (40.777095794,14.787516593) 0.100000001
RECEIVED:$GNGSA,A,3,06,03,09,04,01,17,31,,,,,,1.3,0.8,1.1*2B
"
RECEIVED:$GPGSV,3,1,11,04,79,030,29,09,59,247,28,03,54,075,33,06,33,314,34*70
"
$xxGSV: message 1 of 3
$xxGSV: sattelites in view: 11
$xxGSV: sat nr 4, elevation: 79, azimuth: 30, snr: 29 dbm
$xxGSV: sat nr 9, elevation: 59, azimuth: 247, snr: 28 dbm
$xxGSV: sat nr 3, elevation: 54, azimuth: 75, snr: 33 dbm
$xxGSV: sat nr 6, elevation: 33, azimuth: 314, snr: 34 dbm
RECEIVED:$GLGSV,3,1,09,83,59,282,24,67,52,025,31,68,49,293,33,82,43,203,25*64
"
$xxGSV: message 1 of 3
$xxGSV: sattelites in view: 9
$xxGSV: sat nr 83, elevation: 59, azimuth: 282, snr: 24 dbm
$xxGSV: sat nr 67, elevation: 52, azimuth: 25, snr: 31 dbm
$xxGSV: sat nr 68, elevation: 49, azimuth: 293, snr: 33 dbm
$xxGSV: sat nr 82, elevation: 43, azimuth: 203, snr: 25 dbm
RECEIVED:$GPGLL,4046.62580,N,01447.25100,E,145534.000,A,A*54
"
$xxGll raw latitude,longitude and altitude: (40.777099609,14.787517547)
RECEIVED:$GPRMC,145535.000,A,4046.62580,N,01447.25100,E,0.2,0.0,040822,,,A*6C
"
$xxRMC: raw coordinates and speed: (40.777099609,14.787517547) 2/10
$xxRMC fixed-point coordinates and speed scaled to three decimal places: (4046626,1447251) 200
$xxRMC floating point degree coordinates and speed: (40.777095794,14.787516593) 0.200000002
RECEIVED:$GNGSA,A,3,06,03,09,04,01,17,31,,,,,,1.3,0.8,1.1*2B
"
RECEIVED:$GPGSV,3,1,11,04,79,030,29,09,59,247,27,03,54,075,33,06,33,314,34*7F
"
$xxGSV: message 1 of 3
$xxGSV: sattelites in view: 11
$xxGSV: sat nr 4, elevation: 79, azimuth: 30, snr: 29 dbm
$xxGSV: sat nr 9, elevation: 59, azimuth: 247, snr: 27 dbm
$xxGSV: sat nr 3, elevation: 54, azimuth: 75, snr: 33 dbm
$xxGSV: sat nr 6, elevation: 33, azimuth: 314, snr: 34 dbm
RECEIVED:$GLGSV,3,1,09,83,59,282,24,67,52,025,30,68,49,293,33,82,43,203,24*64
"
$xxGSV: message 1 of 3
$xxGSV: sattelites in view: 9
$xxGSV: sat nr 83, elevation: 59, azimuth: 282, snr: 24 dbm
$xxGSV: sat nr 67, elevation: 52, azimuth: 25, snr: 30 dbm
$xxGSV: sat nr 68, elevation: 49, azimuth: 293, snr: 33 dbm
$xxGSV: sat nr 82, elevation: 43, azimuth: 203, snr: 24 dbm
RECEIVED:$GPGLL,4046.62580,N,01447.25100,E,145535.000,A,A*55
"
$xxGll raw latitude,longitude and altitude: (40.777099609,14.787517547)
RECEIVED:$GPRMC,145536.000,A,4046.62580,N,01447.25100,E,0.2,186.1,040822,,,A*61
"
$xxRMC: raw coordinates and speed: (40.777099609,14.787517547) 2/10
$xxRMC fixed-point coordinates and speed scaled to three decimal places: (4046626,1447251) 200
$xxRMC floating point degree coordinates and speed: (40.777095794,14.787516593) 0.200000002
RECEIVED:$GNGSA,A,3,06,03,09,04,01,17,31,,,,,,1.3,0.8,1.1*2B
"
RECEIVED:$GPGSV,3,1,11,04,79,030,29,09,59,247,27,03,54,075,33,06,33,314,34*7F
"
$xxGSV: message 1 of 3
$xxGSV: sattelites in view: 11
$xxGSV: sat nr 4, elevation: 79, azimuth: 30, snr: 29 dbm
$xxGSV: sat nr 9, elevation: 59, azimuth: 247, snr: 27 dbm
$xxGSV: sat nr 3, elevation: 54, azimuth: 75, snr: 33 dbm
$xxGSV: sat nr 6, elevation: 33, azimuth: 314, snr: 34 dbm
RECEIVED:$GLGSV,3,1,09,83,59,282,24,67,52,025,29,68,49,293,33,82,43,203,24*6C
"
$xxGSV: message 1 of 3
$xxGSV: sattelites in view: 9
$xxGSV: sat nr 83, elevation: 59, azimuth: 282, snr: 24 dbm
$xxGSV: sat nr 67, elevation: 52, azimuth: 25, snr: 29 dbm
$xxGSV: sat nr 68, elevation: 49, azimuth: 293, snr: 33 dbm
$xxGSV: sat nr 82, elevation: 43, azimuth: 203, snr: 24 dbm
RECEIVED:$GPGLL,4046.62580,N,01447.25100,E,145536.000,A,A*56
"
$xxGll raw latitude,longitude and altitude: (40.777099609,14.787517547)
RECEIVED:$GPRMC,145537.000,A,4046.62591,N,01447.25087,E,0.2,0.0,040822,,,A*60
"
$xxRMC: raw coordinates and speed: (40.777099609,14.787513732) 2/10
$xxRMC fixed-point coordinates and speed scaled to three decimal places: (4046626,1447251) 200
$xxRMC floating point degree coordinates and speed: (40.777099609,14.787514686) 0.200000002
RECEIVED:$GNGSA,A,3,06,03,09,04,01,17,31,,,,,,1.3,0.8,1.1*2B
"
RECEIVED:$GPGSV,3,1,11,04,79,030,28,09,59,247,27,03,54,075,32,06,33,314,33*78
"
$xxGSV: message 1 of 3
$xxGSV: sattelites in view: 11
$xxGSV: sat nr 4, elevation: 79, azimuth: 30, snr: 28 dbm
$xxGSV: sat nr 9, elevation: 59, azimuth: 247, snr: 27 dbm
$xxGSV: sat nr 3, elevation: 54, azimuth: 75, snr: 32 dbm
$xxGSV: sat nr 6, elevation: 33, azimuth: 314, snr: 33 dbm
RECEIVED:$GLGSV,3,1,09,83,59,282,23,67,52,025,28,68,49,293,32,82,43,203,24*6B
"
$xxGSV: message 1 of 3
$xxGSV: sattelites in view: 9
$xxGSV: sat nr 83, elevation: 59, azimuth: 282, snr: 23 dbm
$xxGSV: sat nr 67, elevation: 52, azimuth: 25, snr: 28 dbm
$xxGSV: sat nr 68, elevation: 49, azimuth: 293, snr: 32 dbm
$xxGSV: sat nr 82, elevation: 43, azimuth: 203, snr: 24 dbm
RECEIVED:$GPGLL,4046.62591,N,01447.25087,E,145537.000,A,A*59
"
$xxGll raw latitude,longitude and altitude: (40.777099609,14.787513732)
RECEIVED:$GPRMC,145538.000,A,4046.62591,N,01447.25087,E,0.1,0.0,040822,,,A*6C
"
$xxRMC: raw coordinates and speed: (40.777099609,14.787513732) 1/10
$xxRMC fixed-point coordinates and speed scaled to three decimal places: (4046626,1447251) 100
$xxRMC floating point degree coordinates and speed: (40.777099609,14.787514686) 0.100000001
RECEIVED:$GNGSA,A,3,06,03,09,04,01,17,31,,,,,,1.3,0.8,1.1*2B
"
RECEIVED:$GPGSV,3,1,11,04,79,030,28,09,59,247,27,03,54,075,32,06,33,314,33*78
"
$xxGSV: message 1 of 3
$xxGSV: sattelites in view: 11
$xxGSV: sat nr 4, elevation: 79, azimuth: 30, snr: 28 dbm
$xxGSV: sat nr 9, elevation: 59, azimuth: 247, snr: 27 dbm
$xxGSV: sat nr 3, elevation: 54, azimuth: 75, snr: 32 dbm
$xxGSV: sat nr 6, elevation: 33, azimuth: 314, snr: 33 dbm
RECEIVED:$GLGSV,3,1,09,83,59,282,23,67,52,025,29,68,49,293,32,82,43,203,24*6A
"
$xxGSV: message 1 of 3
$xxGSV: sattelites in view: 9
$xxGSV: sat nr 83, elevation: 59, azimuth: 282, snr: 23 dbm
$xxGSV: sat nr 67, elevation: 52, azimuth: 25, snr: 29 dbm
$xxGSV: sat nr 68, elevation: 49, azimuth: 293, snr: 32 dbm
$xxGSV: sat nr 82, elevation: 43, azimuth: 203, snr: 24 dbm
RECEIVED:$GPGLL,4046.62591,N,01447.25087,E,145538.000,A,A*56
"
$xxGll raw latitude,longitude and altitude: (40.777099609,14.787513732)
RECEIVED:$GPRMC,145539.000,A,4046.62591,N,01447.25087,E,0.1,0.0,040822,,,A*6D
"
$xxRMC: raw coordinates and speed: (40.777099609,14.787513732) 1/10
$xxRMC fixed-point coordinates and speed scaled to three decimal places: (4046626,1447251) 100
$xxRMC floating point degree coordinates and speed: (40.777099609,14.787514686) 0.100000001
RECEIVED:$GNGSA,A,3,06,03,09,04,01,17,31,,,,,,1.3,0.8,1.1*2B
"
RECEIVED:$GPGSV,3,1,11,04,79,030,30,09,59,247,28,03,54,075,34,06,33,314,32*79
"
$xxGSV: message 1 of 3
$xxGSV: sattelites in view: 11
$xxGSV: sat nr 4, elevation: 79, azimuth: 30, snr: 30 dbm
$xxGSV: sat nr 9, elevation: 59, azimuth: 247, snr: 28 dbm
$xxGSV: sat nr 3, elevation: 54, azimuth: 75, snr: 34 dbm
$xxGSV: sat nr 6, elevation: 33, azimuth: 314, snr: 32 dbm
RECEIVED:$GLGSV,3,1,09,83,59,282,23,67,52,025,31,68,49,293,32,82,43,203,24*63
"
$xxGSV: message 1 of 3
$xxGSV: sattelites in view: 9
$xxGSV: sat nr 83, elevation: 59, azimuth: 282, snr: 23 dbm
$xxGSV: sat nr 67, elevation: 52, azimuth: 25, snr: 31 dbm
$xxGSV: sat nr 68, elevation: 49, azimuth: 293, snr: 32 dbm
$xxGSV: sat nr 82, elevation: 43, azimuth: 203, snr: 24 dbm
RECEIVED:$GPGLL,4046.62591,N,01447.25087,E,1RECEIVED:$GPGLL,4046.62577,N,01447.25086,E,145623.000,V,N*4E
"
$xxGll raw latitude,longitude and altitude: (40.777099609,14.787513732)
RECEIVED:$GPRMC,145624.000,V,4046.62577,N,01447.25086,E,0.0,0.0,040822,,,N*72
"
$xxRMC: raw coordinates and speed: (40.777099609,14.787513732) 0/10
$xxRMC fixed-point coordinates and speed scaled to three decimal places: (4046626,1447251) 0
$xxRMC floating point degree coordinates and speed: (40.777095794,14.787514686) 0.000000000
RECEIVED:$GNGSA,A,1,06,03,04,,,,,,,,,,99.0,99.0,99.0*1F
"
RECEIVED:$GPGSV,3,1,10,04,78,030,35,09,60,247,,03,54,076,29,06,34,314,35*73
"
$xxGSV: message 1 of 3
$xxGSV: sattelites in view: 10
$xxGSV: sat nr 4, elevation: 78, azimuth: 30, snr: 35 dbm
$xxGSV: sat nr 9, elevation: 60, azimuth: 247, snr: 0 dbm
$xxGSV: sat nr 3, elevation: 54, azimuth: 76, snr: 29 dbm
$xxGSV: sat nr 6, elevation: 34, azimuth: 314, snr: 35 dbm
RECEIVED:$GLGSV,3,1,09,83,59,281,,67,52,026,,68,49,294,28,82,42,202,*6A
"
$xxGSV: message 1 of 3
$xxGSV: sattelites in view: 9
$xxGSV: sat nr 83, elevation: 59, azimuth: 281, snr: 0 dbm
$xxGSV: sat nr 67, elevation: 52, azimuth: 26, snr: 0 dbm
$xxGSV: sat nr 68, elevation: 49, azimuth: 294, snr: 28 dbm
$xxGSV: sat nr 82, elevation: 42, azimuth: 202, snr: 0 dbm
RECEIVED:$GPGLL,4046.62577,N,01447.25086,E,145624.000,V,N*49
"
$xxGll raw latitude,longitude and altitude: (40.777099609,14.787513732)
RECEIVED:$GPRMC,145625.000,V,4046.62577,N,01447.25086,E,0.0,0.0,040822,,,N*73
"
$xxRMC: raw coordinates and speed: (40.777099609,14.787513732) 0/10
$xxRMC fixed-point coordinates and speed scaled to three decimal places: (4046626,1447251) 0
$xxRMC floating point degree coordinates and speed: (40.777095794,14.787514686) 0.000000000
RECEIVED:$GNGSA,A,1,06,03,04,,,,,,,,,,99.0,99.0,99.0*1F
"
RECEIVED:$GPGSV,3,1,10,04,78,030,35,09,60,247,,03,54,076,29,06,34,314,35*73
"
$xxGSV: message 1 of 3
$xxGSV: sattelites in view: 10
$xxGSV: sat nr 4, elevation: 78, azimuth: 30, snr: 35 dbm
$xxGSV: sat nr 9, elevation: 60, azimuth: 247, snr: 0 dbm
$xxGSV: sat nr 3, elevation: 54, azimuth: 76, snr: 29 dbm
$xxGSV: sat nr 6, elevation: 34, azimuth: 314, snr: 35 dbm
RECEIVED:$GLGSV,3,1,09,83,59,281,,67,52,026,,68,49,294,28,82,42,202,*6A
"
$xxGSV: message 1 of 3
$xxGSV: sattelites in view: 9
$xxGSV: sat nr 83, elevation: 59, azimuth: 281, snr: 0 dbm
$xxGSV: sat nr 67, elevation: 52, azimuth: 26, snr: 0 dbm
$xxGSV: sat nr 68, elevation: 49, azimuth: 294, snr: 28 dbm
$xxGSV: sat nr 82, elevation: 42, azimuth: 202, snr: 0 dbm
RECEIVED:$GPGLL,4046.62577,N,01447.25086,E,145625.000,V,N*48
"
$xxGll raw latitude,longitude and altitude: (40.777099609,14.787513732)
RECEIVED:$GPRMC,145626.000,V,4046.62577,N,01447.25086,E,0.0,0.0,040822,,,N*70
"
$xxRMC: raw coordinates and speed: (40.777099609,14.787513732) 0/10
$xxRMC fixed-point coordinates and speed scaled to three decimal places: (4046626,1447251) 0
$xxRMC floating point degree coordinates and speed: (40.777095794,14.787514686) 0.000000000
RECEIVED:$GNGSA,A,1,06,03,04,,,,,,,,,,99.0,99.0,99.0*1F
"
RECEIVED:$GPGSV,3,1,10,04,78,030,34,09,60,247,,03,54,076,29,06,34,314,35*72
"
$xxGSV: message 1 of 3
$xxGSV: sattelites in view: 10
$xxGSV: sat nr 4, elevation: 78, azimuth: 30, snr: 34 dbm
$xxGSV: sat nr 9, elevation: 60, azimuth: 247, snr: 0 dbm
$xxGSV: sat nr 3, elevation: 54, azimuth: 76, snr: 29 dbm
$xxGSV: sat nr 6, elevation: 34, azimuth: 314, snr: 35 dbm
RECEIVED:$GLGSV,3,1,09,83,59,281,,67,52,026,,68,49,294,26,82,42,202,*64
"
$xxGSV: message 1 of 3
$xxGSV: sattelites in view: 9
$xxGSV: sat nr 83, elevation: 59, azimuth: 281, snr: 0 dbm
$xxGSV: sat nr 67, elevation: 52, azimuth: 26, snr: 0 dbm
$xxGSV: sat nr 68, elevation: 49, azimuth: 294, snr: 26 dbm
$xxGSV: sat nr 82, elevation: 42, azimuth: 202, snr: 0 dbm
RECEIVED:$GPGLL,4046.62577,N,01447.25086,E,145626.000,V,N*4B
"
$xxGll raw latitude,longitude and altitude: (40.777099609,14.787513732)
RECEIVED:$GPRMC,145627.000,V,4046.62577,N,01447.25086,E,0.0,0.0,040822,,,N*71
"
$xxRMC: raw coordinates and speed: (40.777099609,14.787513732) 0/10
$xxRMC fixed-point coordinates and speed scaled to three decimal places: (4046626,1447251) 0
$xxRMC floating point degree coordinates and speed: (40.777095794,14.787514686) 0.000000000
RECEIVED:$GNGSA,A,1,06,03,04,,,,,,,,,,99.0,99.0,99.0*1F
"
RECEIVED:$GPGSV,3,1,10,04,78,030,34,09,60,247,,03,54,076,29,06,34,314,35*72
"
$xxGSV: message 1 of 3
$xxGSV: sattelites in view: 10
$xxGSV: sat nr 4, elevation: 78, azimuth: 30, snr: 34 dbm
$xxGSV: sat nr 9, elevation: 60, azimuth: 247, snr: 0 dbm
$xxGSV: sat nr 3, elevation: 54, azimuth: 76, snr: 29 dbm
$xxGSV: sat nr 6, elevation: 34, azimuth: 314, snr: 35 dbm
RECEIVED:$GLGSV,3,1,09,83,59,281,,67,52,026,,68,49,294,26,82,42,202,*64
"
$xxGSV: message 1 of 3
$xxGSV: sattelites in view: 9
$xxGSV: sat nr 83, elevation: 59, azimuth: 281, snr: 0 dbm
$xxGSV: sat nr 67, elevation: 52, azimuth: 26, snr: 0 dbm
$xxGSV: sat nr 68, elevation: 49, azimuth: 294, snr: 26 dbm
$xxGSV: sat nr 82, elevation: 42, azimuth: 202, snr: 0 dbm
RECEIVED:$GPGLL,4046.62577,N,01447.25086,E,145627.000,V,N*4A
"
$xxGll raw latitude,longitude and altitude: (40.777099609,14.787513732)
RECEIVED:$GPRMC,145628.000,V,4046.62577,N,01447.25086,E,0.0,0.0,040822,,,N*7E
"
$xxRMC: raw coordinates and speed: (40.777099609,14.787513732) 0/10
$xxRMC fixed-point coordinates and speed scaled to three decimal places: (4046626,1447251) 0
$xxRMC floating point degree coordinates and speed: (40.777095794,14.787514686) 0.000000000
RECEIVED:$GNGSA,A,1,06,03,04,,,,,,,,,,99.0,99.0,99.0*1F
"
RECEIVED:$GPGSV,3,1,10,04,78,030,34,09,60,247,,03,54,076,30,06,34,314,35*7A
"
$xxGSV: message 1 of 3
$xxGSV: sattelites in view: 10
$xxGSV: sat nr 4, elevation: 78, azimuth: 30, snr: 34 dbm
$xxGSV: sat nr 9, elevation: 60, azimuth: 247, snr: 0 dbm
$xxGSV: sat nr 3, elevation: 54, azimuth: 76, snr: 30 dbm
$xxGSV: sat nr 6, elevation: 34, azimuth: 314, snr: 35 dbm
RECEIVED:$GLGSV,3,1,09,83,59,281,,67,52,026,,68,49,294,33,82,42,202,*60
"
$xxGSV: message 1 of 3
$xxGSV: sattelites in view: 9
$xxGSV: sat nr 83, elevation: 59, azimuth: 281, snr: 0 dbm
$xxGSV: sat nr 67, elevation: 52, azimuth: 26, snr: 0 dbm
$xxGSV: sat nr 68, elevation: 49, azimuth: 294, snr: 33 dbm
$xxGSV: sat nr 82, elevation: 42, azimuth: 202, snr: 0 dbm
RECEIVED:$GPGLL,4046.62577,N,01447.25086,E,145628.000,V,N*45
"
$xxGll raw latitude,longitude and altitude: (40.777099609,14.787513732)
RECEIVED:$GPRMC,145629.000,V,4046.62577,N,01447.25086,E,0.0,0.0,040822,,,N*7F
"
$xxRMC: raw coordinates and speed: (40.777099609,14.787513732) 0/10
$xxRMC fixed-point coordinates and speed scaled to three decimal places: (4046626,1447251) 0
$xxRMC floating point degree coordinates and speed: (40.777095794,14.787514686) 0.000000000
RECEIVED:$GNGSA,A,1,06,03,04,,,,,,,,,,99.0,99.0,99.0*1F
"
RECEIVED:$GPGSV,3,1,10,04,78,030,34,09,60,247,,03,54,076,28,06,34,314,35*73
"
$xxGSV: message 1 of 3
$xxGSV: sattelites in view: 10
$xxGSV: sat nr 4, elevation: 78, azimuth: 30, snr: 34 dbm
$xxGSV: sat nr 9, elevation: 60, azimuth: 247, snr: 0 dbm
$xxGSV: sat nr 3, elevation: 54, azimuth: 76, snr: 28 dbm
$xxGSV: sat nr 6, elevation: 34, azimuth: 314, snr: 35 dbm
RECEIVED:$GLGSV,3,1,09,83,59,281,,67,52,026,,68,49,294,33,82,42,202,*60
"
$xxGSV: message 1 of 3
$xxGSV: sattelites in view: 9
$xxGSV: sat nr 83, elevation: 59, azimuth: 281, snr: 0 dbm
$xxGSV: sat nr 67, elevation: 52, azimuth: 26, snr: 0 dbm
$xxGSV: sat nr 68, elevation: 49, azimuth: 294, snr: 33 dbm
$xxGSV: sat nr 82, elevation: 42, azimuth: 202, snr: 0 dbm
RECEIVED:$GPGLL,4046.62577,N,01447.25086,E,145629.000,V,N*44
"
$xxGll raw latitude,longitude and altitude: (40.777099609,14.787513732)
RECEIVED:$GPRMC,145630.000,A,4046.61671,N,01447.24536,E,0.2,0.0,040822,,,A*64
"
$xxRMC: raw coordinates and speed: (40.776947021,14.787423133) 2/10
$xxRMC fixed-point coordinates and speed scaled to three decimal places: (4046617,1447245) 200
$xxRMC floating point degree coordinates and speed: (40.776947021,14.787422180) 0.200000002
RECEIVED:$GNGSA,A,2,06,03,04,31,,,,,,,,,2.4,2.2,1.0*29
"
RECEIVED:$GPGSV,3,1,10,04,78,030,34,09,60,247,,03,54,076,28,06,34,314,34*72
"
$xxGSV: message 1 of 3
$xxGSV: sattelites in view: 10
$xxGSV: sat nr 4, elevation: 78, azimuth: 30, snr: 34 dbm
$xxGSV: sat nr 9, elevation: 60, azimuth: 247, snr: 0 dbm
$xxGSV: sat nr 3, elevation: 54, azimuth: 76, snr: 28 dbm
$xxGSV: sat nr 6, elevation: 34, azimuth: 314, snr: 34 dbm
RECEIVED:$GLGSV,3,1,09,83,59,281,,67,52,026,,68,49,294,32,82,42,202,*61
"
$xxGSV: message 1 of 3
$xxGSV: sattelites in view: 9
$xxGSV: sat nr 83, elevation: 59, azimuth: 281, snr: 0 dbm
$xxGSV: sat nr 67, elevation: 52, azimuth: 26, snr: 0 dbm
$xxGSV: sat nr 68, elevation: 49, azimuth: 294, snr: 32 dbm
$xxGSV: sat nr 82, elevation: 42, azimuth: 202, snr: 0 dbm
RECEIVED:$GPGLL,4046.61671,N,01447.24536,E,145630.000,A,A*5D
"
$xxGll raw latitude,longitude and altitude: (40.776947021,14.787423133)
RECEIVED:$GPRMC,145631.000,A,4046.61707,N,01447.24563,E,0.0,0.0,040822,,,A*67
"
$xxRMC: raw coordinates and speed: (40.776950836,14.787426948) 0/10
$xxRMC fixed-point coordinates and speed scaled to three decimal places: (4046617,1447246) 0
$xxRMC floating point degree coordinates and speed: (40.776950836,14.787426948) 0.000000000
RECEIVED:$GNGSA,A,3,06,03,04,31,,,,,,,,,9.3,6.8,6.4*29
"
RECEIVED:$GPGSV,3,1,10,04,78,030,27,09,60,247,,03,54,076,28,06,34,314,21*74
"
$xxGSV: message 1 of 3
$xxGSV: sattelites in view: 10
$xxGSV: sat nr 4, elevation: 78, azimuth: 30, snr: 27 dbm
$xxGSV: sat nr 9, elevation: 60, azimuth: 247, snr: 0 dbm
$xxGSV: sat nr 3, elevation: 54, azimuth: 76, snr: 28 dbm
$xxGSV: sat nr 6, elevation: 34, azimuth: 314, snr: 21 dbm
RECEIVED:$GLGSV,3,1,09,83,59,281,,67,52,026,,68,49,294,27,82,42,202,*65
"
$xxGSV: message 1 of 3
$xxGSV: sattelites in view: 9
$xxGSV: sat nr 83, elevation: 59, azimuth: 281, snr: 0 dbm
$xxGSV: sat nr 67, elevation: 52, azimuth: 26, snr: 0 dbm
$xxGSV: sat nr 68, elevation: 49, azimuth: 294, snr: 27 dbm
$xxGSV: sat nr 82, elevation: 42, azimuth: 202, snr: 0 dbm
RECEIVED:$GPGLL,4046.61707,N,01447.24563,E,145631.000,A,A*5C
"
$xxGll raw latitude,longitude and altitude: (40.776950836,14.787426948)
RECEIVED:$GPRMC,145632.000,A,4046.61718,N,01447.24557,E,0.4,141.0,040822,,,A*6D
"
$xxRMC: raw coordinates and speed: (40.776950836,14.787426948) 4/10
$xxRMC fixed-point coordinates and speed scaled to three decimal places: (4046617,1447246) 400
$xxRMC floating point degree coordinates and speed: (40.776954650,14.787425994) 0.400000005
RECEIVED:$GNGSA,A,3,06,03,04,31,,,,,,,,,9.3,6.8,6.4*29
"
RECEIVED:$GPGSV,3,1,10,04,78,030,25,09,60,247,,03,54,076,28,06,34,314,21*76
"
$xxGSV: message 1 of 3
$xxGSV: sattelites in view: 10
$xxGSV: sat nr 4, elevation: 78, azimuth: 30, snr: 25 dbm
$xxGSV: sat nr 9, elevation: 60, azimuth: 247, snr: 0 dbm
$xxGSV: sat nr 3, elevation: 54, azimuth: 76, snr: 28 dbm
$xxGSV: sat nr 6, elevation: 34, azimuth: 314, snr: 21 dbm
RECEIVED:$GLGSV,3,1,09,83,59,281,,67,52,026,,68,49,294,25,82,42,202,*67
"
$xxGSV: message 1 of 3
$xxGSV: sattelites in view: 9
$xxGSV: sat nr 83, elevation: 59, azimuth: 281, snr: 0 dbm
$xxGSV: sat nr 67, elevation: 52, azimuth: 26, snr: 0 dbm
$xxGSV: sat nr 68, elevation: 49, azimuth: 294, snr: 25 dbm
$xxGSV: sat nr 82, elevation: 42, azimuth: 202, snr: 0 dbm
RECEIVED:$GPGLL,4046.61718,N,01447.24557,E,145632.000,A,A*56
"
$xxGll raw latitude,longitude and altitude: (40.776950836,14.787426948)
RECEIVED:$GPRMC,145633.000,A,4046.61721,N,01447.24524,E,0.7,229.1,040822,,,A*6D
"
$xxRMC: raw coordinates and speed: (40.776950836,14.787422180) 7/10
$xxRMC fixed-point coordinates and speed scaled to three decimal places: (4046617,1447245) 700
$xxRMC floating point degree coordinates and speed: (40.776954650,14.787420272) 0.699999988
RECEIVED:$GNGSA,A,3,03,04,31,,,,,,,,,,10.4,7.8,6.9*1C
"
RECEIVED:$GPGSV,3,1,10,04,78,030,24,09,60,247,,03,54,076,27,06,34,314,*7B
"
$xxGSV: message 1 of 3
$xxGSV: sattelites in view: 10
$xxGSV: sat nr 4, elevation: 78, azimuth: 30, snr: 24 dbm
$xxGSV: sat nr 9, elevation: 60, azimuth: 247, snr: 0 dbm
$xxGSV: sat nr 3, elevation: 54, azimuth: 76, snr: 27 dbm
$xxGSV: sat nr 6, elevation: 34, azimuth: 314, snr: 0 dbm
RECEIVED:$GLGSV,3,1,09,83,59,281,,67,52,026,,68,49,294,24,82,42,202,*66
"
$xxGSV: message 1 of 3
$xxGSV: sattelites in view: 9
$xxGSV: sat nr 83, elevation: 59, azimuth: 281, snr: 0 dbm
$xxGSV: sat nr 67, elevation: 52, azimuth: 26, snr: 0 dbm
$xxGSV: sat nr 68, elevation: 49, azimuth: 294, snr: 24 dbm
$xxGSV: sat nr 82, elevation: 42, azimuth: 202, snr: 0 dbm
RECEIVED:$GPGLL,4046.61721,N,01447.24524,E,145633.000,A,A*59
"
$xxGll raw latitude,longitude and altitude: (40.776950836,14.787422180)
RECEIVED:$GPRMC,145634.000,V,4046.61721,N,01447.24524,E,0.7,229.1,040822,,,N*72
"
$xxRMC: raw coordinates and speed: (40.776950836,14.787422180) 7/10
$xxRMC fixed-point coordinates and speed scaled to three decimal places: (4046617,1447245) 700
$xxRMC floating point degree coordinates and speed: (40.776954650,14.787420272) 0.699999988
RECEIVED:$GNGSA,A,1,03,04,,,,,,,,,,,99.0,99.0,99.0*19
"
RECEIVED:$GPGSV,3,1,10,04,78,030,22,09,60,247,,03,54,076,25,06,34,314,24*79
"
$xxGSV: message 1 of 3
$xxGSV: sattelites in view: 10
$xxGSV: sat nr 4, elevation: 78, azimuth: 30, snr: 22 dbm
$xxGSV: sat nr 9, elevation: 60, azimuth: 247, snr: 0 dbm
$xxGSV: sat nr 3, elevation: 54, azimuth: 76, snr: 25 dbm
$xxGSV: sat nr 6, elevation: 34, azimuth: 314, snr: 24 dbm
RECEIVED:$GLGSV,3,1,09,83,59,281,,67,52,026,,68,49,294,21,82,42,202,*63
"
$xxGSV: message 1 of 3
$xxGSV: sattelites in view: 9
$xxGSV: sat nr 83, elevation: 59, azimuth: 281, snr: 0 dbm
$xxGSV: sat nr 67, elevation: 52, azimuth: 26, snr: 0 dbm
$xxGSV: sat nr 68, elevation: 49, azimuth: 294, snr: 21 dbm
$xxGSV: sat nr 82, elevation: 42, azimuth: 202, snr: 0 dbm
RECEIVED:$GPGLL,4046.61721,N,01447.24524,E,145634.000,V,N*46
"
$xxGll raw latitude,longitude and altitude: (40.776950836,14.787422180)
RECEIVED:$GPRMC,145635.000,V,4046.61721,N,01447.24524,E,0.7,229.1,040822,,,N*73
"
$xxRMC: raw coordinates and speed: (40.776950836,14.787422180) 7/10
$xxRMC fixed-point coordinates and speed scaled to three decimal places: (4046617,1447245) 700
$xxRMC floating point degree coordinates and speed: (40.776954650,14.787420272) 0.699999988
RECEIVED:$GNGSA,A,1,03,04,,,,,,,,,,,99.0,99.0,99.0*19
"
RECEIVED:$GPGSV,3,1,10,04,78,030,21,09,60,247,,03,54,076,25,06,34,314,18*75
"
$xxGSV: message 1 of 3
$xxGSV: sattelites in view: 10
$xxGSV: sat nr 4, elevation: 78, azimuth: 30, snr: 21 dbm
$xxGSV: sat nr 9, elevation: 60, azimuth: 247, snr: 0 dbm
$xxGSV: sat nr 3, elevation: 54, azimuth: 76, snr: 25 dbm
$xxGSV: sat nr 6, elevation: 34, azimuth: 314, snr: 18 dbm
RECEIVED:$GLGSV,3,1,09,83,59,281,,67,52,026,,68,49,294,20,82,42,202,*62
"
$xxGSV: message 1 of 3
$xxGSV: sattelites in view: 9
$xxGSV: sat nr 83, elevation: 59, azimuth: 281, snr: 0 dbm
$xxGSV: sat nr 67, elevation: 52, azimuth: 26, snr: 0 dbm
$xxGSV: sat nr 68, elevation: 49, azimuth: 294, snr: 20 dbm
$xxGSV: sat nr 82, elevation: 42, azimuth: 202, snr: 0 dbm
RECEIVED:$GPGLL,4046.61721,N,01447.24524,E,145635.000,V,N*47
"
$xxGll raw latitude,longitude and altitude: (40.776950836,14.787422180)
RECEIVED:$GPRMC,145636.000,V,4046.61721,N,01447.24524,E,0.7,229.1,040822,,,N*70
"
$xxRMC: raw coordinates and speed: (40.776950836,14.787422180) 7/10
$xxRMC fixed-point coordinates and speed scaled to three decimal places: (4046617,1447245) 700
$xxRMC floating point degree coordinates and speed: (40.776954650,14.787420272) 0.699999988
RECEIVED:$GNGSA,A,1,06,03,04,,,,,,,,,,9.8,7.2,6.8*25
"
RECEIVED:$GPGSV,3,1,10,04,78,030,19,09,60,247,,03,54,076,24,06,34,314,18*7F
"
$xxGSV: message 1 of 3
$xxGSV: sattelites in view: 10
$xxGSV: sat nr 4, elevation: 78, azimuth: 30, snr: 19 dbm
$xxGSV: sat nr 9, elevation: 60, azimuth: 247, snr: 0 dbm
$xxGSV: sat nr 3, elevation: 54, azimuth: 76, snr: 24 dbm
$xxGSV: sat nr 6, elevation: 34, azimuth: 314, snr: 18 dbm
RECEIVED:$GLGSV,3,1,09,83,59,281,,67,52,026,,68,49,294,20,82,42,202,*62
"
$xxGSV: message 1 of 3
$xxGSV: sattelites in view: 9
$xxGSV: sat nr 83, elevation: 59, azimuth: 281, snr: 0 dbm
$xxGSV: sat nr 67, elevation: 52, azimuth: 26, snr: 0 dbm
$xxGSV: sat nr 68, elevation: 49, azimuth: 294, snr: 20 dbm
$xxGSV: sat nr 82, elevation: 42, azimuth: 202, snr: 0 dbm
RECEIVED:$GPGLL,4046.61721,N,01447.24524,E,145636.000,V,N*44
"
$xxGll raw latitude,longitude and altitude: (40.776950836,14.787422180)
RECEIVED:$GPRMC,145637.000,A,4046.61706,N,01447.24336,E,0.8,296.1,040822,,,A*62
"
$xxRMC: raw coordinates and speed: (40.776950836,14.787389755) 8/10
$xxRMC fixed-point coordinates and speed scaled to three decimal places: (4046617,1447243) 800
$xxRMC floating point degree coordinates and speed: (40.776950836,14.787389755) 0.800000011
RECEIVED:$GNGSA,A,3,06,03,04,,,,,,,,,,9.8,7.2,6.7*28
"
RECEIVED:$GPGSV,3,1,10,04,78,030,19,09,60,247,,03,54,076,24,06,34,314,18*7F
"
$xxGSV: message 1 of 3
$xxGSV: sattelites in view: 10
$xxGSV: sat nr 4, elevation: 78, azimuth: 30, snr: 19 dbm
$xxGSV: sat nr 9, elevation: 60, azimuth: 247, snr: 0 dbm
$xxGSV: sat nr 3, elevation: 54, azimuth: 76, snr: 24 dbm
$xxGSV: sat nr 6, elevation: 34, azimuth: 314, snr: 18 dbm
RECEIVED:$GLGSV,3,1,09,83,59,281,,67,52,026,,68,49,294,18,82,42,202,*69
"
$xxGSV: message 1 of 3
$xxGSV: sattelites in view: 9
$xxGSV: sat nr 83, elevation: 59, azimuth: 281, snr: 0 dbm
$xxGSV: sat nr 67, elevation: 52, azimuth: 26, snr: 0 dbm
$xxGSV: sat nr 68, elevation: 49, azimuth: 294, snr: 18 dbm
$xxGSV: sat nr 82, elevation: 42, azimuth: 202, snr: 0 dbm
RECEIVED:$GPGLL,4046.61706,N,01447.24336,E,145637.000,A,A*5D
"
$xxGll raw latitude,longitude and altitude: (40.776950836,14.787389755)
RECEIVED:$GPRMC,145638.000,A,4046.61723,N,01447.24326,E,0.8,21.2,040822,,,A*56
"
$xxRMC: raw coordinates and speed: (40.776950836,14.787386894) 8/10
$xxRMC fixed-point coordinates and speed scaled to three decimal places: (4046617,1447243) 800
$xxRMC floating point degree coordinates and speed: (40.776954650,14.787387847) 0.800000011
RECEIVED:$GNGSA,A,3,06,03,04,,,,,,,,,,9.8,7.2,6.7*28
"
RECEIVED:$GPGSV,3,1,10,04,78,030,18,09,60,247,,03,54,076,24,06,34,314,19*7F
"
$xxGSV: message 1 of 3
$xxGSV: sattelites in view: 10
$xxGSV: sat nr 4, elevation: 78, azimuth: 30, snr: 18 dbm
$xxGSV: sat nr 9, elevation: 60, azimuth: 247, snr: 0 dbm
$xxGSV: sat nr 3, elevation: 54, azimuth: 76, snr: 24 dbm
$xxGSV: sat nr 6, elevation: 34, azimuth: 314, snr: 19 dbm
RECEIVED:$GLGSV,3,1,09,83,59,281,,67,52,026,,68,49,294,16,82,42,202,*67
"
$xxGSV: message 1 of 3
$xxGSV: sattelites in view: 9
$xxGSV: sat nr 83, elevation: 59, azimuth: 281, snr: 0 dbm
$xxGSV: sat nr 67, elevation: 52, azimuth: 26, snr: 0 dbm
$xxGSV: sat nr 68, elevation: 49, azimuth: 294, snr: 16 dbm
$xxGSV: sat nr 82, elevation: 42, azimuth: 202, snr: 0 dbm
RECEIVED:$GPGLL,4046.61723,N,01447.24326,E,145638.000,A,A*54
"
$xxGll raw latitude,longitude and altitude: (40.776950836,14.787386894)
RECEIVED:$GPRMC,145639.000,A,4046.61741,N,01447.24364,E,1.3,60.3,040822,,,A*5B
"
$xxRMC: raw coordinates and speed: (40.776950836,14.787394523) 13/10
$xxRMC fixed-point coordinates and speed scaled to three decimal places: (4046617,1447244) 1300
$xxRMC floating point degree coordinates and speed: (40.776958465,14.787393569) 1.299999952
RECEIVED:$GNGSA,A,3,06,03,04,,,,,,,,,,9.8,7.2,6.7*28
"
RECEIVED:$GPGSV,3,1,10,04,78,030,18,09,60,247,,03,54,076,24,06,34,314,19*7F
"
$xxGSV: message 1 of 3
$xxGSV: sattelites in view: 10
$xxGSV: sat nr 4, elevation: 78, azimuth: 30, snr: 18 dbm
$xxGSV: sat nr 9, elevation: 60, azimuth: 247, snr: 0 dbm
$xxGSV: sat nr 3, elevation: 54, azimuth: 76, snr: 24 dbm
$xxGSV: sat nr 6, elevation: 34, azimuth: 314, snr: 19 dbm
RECEIVED:$GLGSV,3,1,09,83,59,281,,67,52,026,,68,49,294,15,82,42,202,*64
"
$xxGSV: message 1 of 3
$xxGSV: sattelites in view: 9
$xxGSV: sat nr 83, elevation: 59, azimuth: 281, snr: 0 dbm
$xxGSV: sat nr 67, elevation: 52, azimuth: 26, snr: 0 dbm
$xxGSV: sat nr 68, elevation: 49, azimuth: 294, snr: 15 dbm
$xxGSV: sat nr 82, elevation: 42, azimuth: 202, snr: 0 dbm
RECEIVED:$GPGLL,4046.61741,N,01447.24364,E,145639.000,A,A*57
"
$xxGll raw latitude,longitude and altitude: (40.776950836,14.787394523)
RECEIVED:$GPRMC,145640.000,A,4046.61755,N,01447.24419,E,1.5,71.5,040822,,,A*5D
"
$xxRMC: raw coordinates and speed: (40.776958465,14.787403106) 15/10
$xxRMC fixed-point coordinates and speed scaled to three decimal places: (4046618,1447244) 1500
$xxRMC floating point degree coordinates and speed: (40.776958465,14.787403106) 1.500000000
RECEIVED:$GNGSA,A,3,06,03,04,,,,,,,,,,9.8,7.2,6.7*28
"
RECEIVED:$GPGSV,3,1,10,04,78,030,18,09,60,247,,03,54,076,23,06,34,314,19*78
"
$xxGSV: message 1 of 3
$xxGSV: sattelites in view: 10
$xxGSV: sat nr 4, elevation: 78, azimuth: 30, snr: 18 dbm
$xxGSV: sat nr 9, elevation: 60, azimuth: 247, snr: 0 dbm
$xxGSV: sat nr 3, elevation: 54, azimuth: 76, snr: 23 dbm
$xxGSV: sat nr 6, elevation: 34, azimuth: 314, snr: 19 dbm
RECEIVED:$GLGSV,3,1,09,83,59,281,,67,52,026,23,68,49,294,15,82,42,202,*65
"
$xxGSV: message 1 of 3
$xxGSV: sattelites in view: 9
$xxGSV: sat nr 83, elevation: 59, azimuth: 281, snr: 0 dbm
$xxGSV: sat nr 67, elevation: 52, azimuth: 26, snr: 23 dbm
$xxGSV: sat nr 68, elevation: 49, azimuth: 294, snr: 15 dbm
$xxGSV: sat nr 82, elevation: 42, azimuth: 202, snr: 0 dbm
RECEIVED:$GPGLL,4046.61755,N,01447.24419,E,145640.000,A,A*51
"
$xxGll raw latitude,longitude and altitude: (40.776958465,14.787403106)
RECEIVED:$GPRMC,145641.000,A,4046.61703,N,01447.24447,E,1.8,66.4,040822,,,A*5E
"
$xxRMC: raw coordinates and speed: (40.776950836,14.787407875) 18/10
$xxRMC fixed-point coordinates and speed scaled to three decimal places: (4046617,1447244) 1800
$xxRMC floating point degree coordinates and speed: (40.776950836,14.787407875) 1.799999952
RECEIVED:$GNGSA,A,3,06,03,04,,,,,,,,,,6.3,3.5,5.2*29
"
RECEIVED:$GPGSV,3,1,10,04,78,030,17,09,60,247,,03,54,076,23,06,34,314,20*7D
"
$xxGSV: message 1 of 3
$xxGSV: sattelites in view: 10
$xxGSV: sat nr 4, elevation: 78, azimuth: 30, snr: 17 dbm
$xxGSV: sat nr 9, elevation: 60, azimuth: 247, snr: 0 dbm
$xxGSV: sat nr 3, elevation: 54, azimuth: 76, snr: 23 dbm
$xxGSV: sat nr 6, elevation: 34, azimuth: 314, snr: 20 dbm
RECEIVED:$GPTXT,DEFAULT LIV CONFIGURATION*2B
"
$xxxxx sentence is not valid
RECEIVED:$GPRMC,145631.210,V,4046.61671,N,01447.24535,E,0.0,0.0,040822,,,N*7F
"
$xxRMC: raw coordinates and speed: (40.776947021,14.787422180) 0/10
$xxRMC fixed-point coordinates and speed scaled to three decimal places: (4046617,1447245) 0
$xxRMC floating point degree coordinates and speed: (40.776947021,14.787422180) 0.000000000
RECEIVED:$GNGSA,A,1,,,,,,,,,,,,,99.0,99.0,99.0*1E
"
RECEIVED:$GPGSV,1,1,01,09,00,000,48,,,,,,,,,,,,*4D
"
$xxGSV: message 1 of 1
$xxGSV: sattelites in view: 1
$xxGSV: sat nr 9, elevation: 0, azimuth: 0, snr: 48 dbm
$xxGSV: sat nr 0, elevation: 0, azimuth: 0, snr: 0 dbm
$xxGSV: sat nr 0, elevation: 0, azimuth: 0, snr: 0 dbm
$xxGSV: sat nr 0, elevation: 0, azimuth: 0, snr: 0 dbm
RECEIVED:$GPRMC,145632.000,V,4046.61671,N,01447.24535,E,0.0,0.0,040822,,,N*7F
"
$xxRMC: raw coordinates and speed: (40.776947021,14.787422180) 0/10
$xxRMC fixed-point coordinates and speed scaled to three decimal places: (4046617,1447245) 0
$xxRMC floating point degree coordinates and speed: (40.776947021,14.787422180) 0.000000000
RECEIVED:$GNGSA,A,1,,,,,,,,,,,,,99.0,99.0,99.0*1E
"
RECEIVED:$GPGSV,1,1,02,09,00,000,39,19,00,000,39,,,,,,,,*7A
"
$xxGSV: message 1 of 1
$xxGSV: sattelites in view: 2
$xxGSV: sat nr 9, elevation: 0, azimuth: 0, snr: 39 dbm
$xxGSV: sat nr 19, elevation: 0, azimuth: 0, snr: 39 dbm
$xxGSV: sat nr 0, elevation: 0, azimuth: 0, snr: 0 dbm
$xxGSV: sat nr 0, elevation: 0, azimuth: 0, snr: 0 dbm
RECEIVED:$GPRMC,145633.000,V,4046.61671,N,01447.24535,E,0.0,0.0,040822,,,N*7E
"
$xxRMC: raw coordinates and speed: (40.776947021,14.787422180) 0/10
$xxRMC fixed-point coordinates and speed scaled to three decimal places: (4046617,1447245) 0
$xxRMC floating point degree coordinates and speed: (40.776947021,14.787422180) 0.000000000
RECEIVED:$GNGSA,A,1,,,,,,,,,,,,,99.0,99.0,99.0*1E
"
RECEIVED:$GPGSV,1,1,04,09,00,000,41,19,00,000,39,06,00,000,43,03,00,000,45*70
"
$xxGSV: message 1 of 1
$xxGSV: sattelites in view: 4
$xxGSV: sat nr 9, elevation: 0, azimuth: 0, snr: 41 dbm
$xxGSV: sat nr 19, elevation: 0, azimuth: 0, snr: 39 dbm
$xxGSV: sat nr 6, elevation: 0, azimuth: 0, snr: 43 dbm
$xxGSV: sat nr 3, elevation: 0, azimuth: 0, snr: 45 dbm
RECEIVED:$GPRMC,145634.000,V,4046.61671,N,01447.24535,E,0.0,0.0,040822,,,N*79
"
$xxRMC: raw coordinates and speed: (40.776947021,14.787422180) 0/10
$xxRMC fixed-point coordinates and speed scaled to three decimal places: (4046617,1447245) 0
$xxRMC floating point degree coordinates and speed: (40.776947021,14.787422180) 0.000000000
RECEIVED:$GNGSA,A,1,,,,,,,,,,,,,99.0,99.0,99.0*1E
"
RECEIVED:$GPGSV,2,1,06,09,00,000,43,19,00,000,41,06,00,000,43,03,00,000,45*7C
"
$xxGSV: message 1 of 2
$xxGSV: sattelites in view: 6
$xxGSV: sat nr 9, elevation: 0, azimuth: 0, snr: 43 dbm
$xxGSV: sat nr 19, elevation: 0, azimuth: 0, snr: 41 dbm
$xxGSV: sat nr 6, elevation: 0, azimuth: 0, snr: 43 dbm
$xxGSV: sat nr 3, elevation: 0, azimuth: 0, snr: 45 dbm
RECEIVED:$PSTMCPU,52.12,-1,49*4B
"
$xxxxx sentence is not valid
RECEIVED:$GPRMC,145635.000,V,4046.61671,N,01447.24535,E,0.0,0.0,040822,,,N*78
"
$xxRMC: raw coordinates and speed: (40.776947021,14.787422180) 0/10
$xxRMC fixed-point coordinates and speed scaled to three decimal places: (4046617,1447245) 0
$xxRMC floating point degree coordinates and speed: (40.776947021,14.787422180) 0.000000000
RECEIVED:$GNGSA,A,1,,,,,,,,,,,,,99.0,99.0,99.0*1E
"
RECEIVED:$GPGSV,2,1,08,09,00,000,45,17,00,000,47,04,00,000,46,19,00,000,42*77
"
$xxGSV: message 1 of 2
$xxGSV: sattelites in view: 8
$xxGSV: sat nr 9, elevation: 0, azimuth: 0, snr: 45 dbm
$xxGSV: sat nr 17, elevation: 0, azimuth: 0, snr: 47 dbm
$xxGSV: sat nr 4, elevation: 0, azimuth: 0, snr: 46 dbm
$xxGSV: sat nr 19, elevation: 0, azimuth: 0, snr: 42 dbm
RECEIVED:$PSTMCPU,46.12,-1,49*4E
"
$xxxxx sentence is not valid
RECEIVED:$GPRMC,145636.000,V,4046.61671,N,01447.24535,E,0.0,0.0,040822,,,N*7B
"
$xxRMC: raw coordinates and speed: (40.776947021,14.787422180) 0/10
$xxRMC fixed-point coordinates and speed scaled to three decimal places: (4046617,1447245) 0
$xxRMC floating point degree coordinates and speed: (40.776947021,14.787422180) 0.000000000
RECEIVED:$GNGSA,A,1,,,,,,,,,,,,,99.0,99.0,99.0*1E
"
RECEIVED:$GPGSV,3,1,09,09,00,000,46,17,00,000,47,04,00,000,46,19,00,000,43*75
"
$xxGSV: message 1 of 3
$xxGSV: sattelites in view: 9
$xxGSV: sat nr 9, elevation: 0, azimuth: 0, snr: 46 dbm
$xxGSV: sat nr 17, elevation: 0, azimuth: 0, snr: 47 dbm
$xxGSV: sat nr 4, elevation: 0, azimuth: 0, snr: 46 dbm
$xxGSV: sat nr 19, elevation: 0, azimuth: 0, snr: 43 dbm
RECEIVED:$GPGLL,4046.61671,N,01447.24535,E,145636.000,V,N*40
"
$xxGll raw latitude,longitude and altitude: (40.776947021,14.787422180)
RECEIVED:$GPRMC,145637.000,V,4046.61671,N,01447.24535,E,0.0,0.0,040822,,,N*7A
"
$xxRMC: raw coordinates and speed: (40.776947021,14.787422180) 0/10
$xxRMC fixed-point coordinates and speed scaled to three decimal places: (4046617,1447245) 0
$xxRMC floating point degree coordinates and speed: (40.776947021,14.787422180) 0.000000000
RECEIVED:$GNGSA,A,1,,,,,,,,,,,,,99.0,99.0,99.0*1E
"
RECEIVED:$GPGSV,3,1,09,09,00,000,47,17,00,000,47,04,00,000,46,19,00,000,43*74
"
$xxGSV: message 1 of 3
$xxGSV: sattelites in view: 9
$xxGSV: sat nr 9, elevation: 0, azimuth: 0, snr: 47 dbm
$xxGSV: sat nr 17, elevation: 0, azimuth: 0, snr: 47 dbm
$xxGSV: sat nr 4, elevation: 0, azimuth: 0, snr: 46 dbm
$xxGSV: sat nr 19, elevation: 0, azimuth: 0, snr: 43 dbm
RECEIVED:$GPGLL,4046.61671,N,01447.24535,E,145637.000,V,N*41
"
$xxGll raw latitude,longitude and altitude: (40.776947021,14.787422180)
RECEIVED:$GPRMC,145638.000,V,4046.61671,N,01447.24535,E,0.0,0.0,040822,,,N*75
"
$xxRMC: raw coordinates and speed: (40.776947021,14.787422180) 0/10
$xxRMC fixed-point coordinates and speed scaled to three decimal places: (4046617,1447245) 0
$xxRMC floating point degree coordinates and speed: (40.776947021,14.787422180) 0.000000000
RECEIVED:$GNGSA,A,1,,,,,,,,,,,,,99.0,99.0,99.0*1E
"
RECEIVED:$GPGSV,3,1,09,09,00,000,47,17,00,000,47,04,00,000,46,19,00,000,44*73
"
$xxGSV: message 1 of 3
$xxGSV: sattelites in view: 9
$xxGSV: sat nr 9, elevation: 0, azimuth: 0, snr: 47 dbm
$xxGSV: sat nr 17, elevation: 0, azimuth: 0, snr: 47 dbm
$xxGSV: sat nr 4, elevation: 0, azimuth: 0, snr: 46 dbm
$xxGSV: sat nr 19, elevation: 0, azimuth: 0, snr: 44 dbm
RECEIVED:$GPGLL,4046.61671,N,01447.24535,E,145638.000,V,N*4E
"
$xxGll raw latitude,longitude and altitude: (40.776947021,14.787422180)
RECEIVED:$GPRMC,145639.000,V,4046.61671,N,01447.24535,E,0.0,0.0,040822,,,N*74
"
$xxRMC: raw coordinates and speed: (40.776947021,14.787422180) 0/10
$xxRMC fixed-point coordinates and speed scaled to three decimal places: (4046617,1447245) 0
$xxRMC floating point degree coordinates and speed: (40.776947021,14.787422180) 0.000000000
RECEIVED:$GNGSA,A,1,,,,,,,,,,,,,99.0,99.0,99.0*1E
"
RECEIVED:$GPGSV,3,1,09,09,00,000,48,17,00,000,47,04,00,000,47,19,00,000,44*7D
"
$xxGSV: message 1 of 3
$xxGSV: sattelites in view: 9
$xxGSV: sat nr 9, elevation: 0, azimuth: 0, snr: 48 dbm
$xxGSV: sat nr 17, elevation: 0, azimuth: 0, snr: 47 dbm
$xxGSV: sat nr 4, elevation: 0, azimuth: 0, snr: 47 dbm
$xxGSV: sat nr 19, elevation: 0, azimuth: 0, snr: 44 dbm
RECEIVED:$GPGLL,4046.61671,N,01447.24535,E,145639.000,V,N*4F
"
$xxGll raw latitude,longitude and altitude: (40.776947021,14.787422180)
RECEIVED:$GPRMC,145640.000,V,4046.61671,N,01447.24535,E,0.0,0.0,040822,,,N*7A
"
$xxRMC: raw coordinates and speed: (40.776947021,14.787422180) 0/10
$xxRMC fixed-point coordinates and speed scaled to three decimal places: (4046617,1447245) 0
$xxRMC floating point degree coordinates and speed: (40.776947021,14.787422180) 0.000000000
RECEIVED:$GNGSA,A,1,,,,,,,,,,,,,99.0,99.0,99.0*1E
"
RECEIVED:$GPGSV,3,1,09,09,00,000,48,17,00,000,47,04,00,000,47,19,00,000,44*7D
"
$xxGSV: message 1 of 3
$xxGSV: sattelites in view: 9
$xxGSV: sat nr 9, elevation: 0, azimuth: 0, snr: 48 dbm
$xxGSV: sat nr 17, elevation: 0, azimuth: 0, snr: 47 dbm
$xxGSV: sat nr 4, elevation: 0, azimuth: 0, snr: 47 dbm
$xxGSV: sat nr 19, elevation: 0, azimuth: 0, snr: 44 dbm
RECEIVED:$GLGSV,1,1,01,82,00,000,49,,,,,,,,,,,,*53
"
$xxGSV: message 1 of 1
$xxGSV: sattelites in view: 1
$xxGSV: sat nr 82, elevation: 0, azimuth: 0, snr: 49 dbm
$xxGSV: sat nr 0, elevation: 0, azimuth: 0, snr: 0 dbm
$xxGSV: sat nr 0, elevation: 0, azimuth: 0, snr: 0 dbm
$xxGSV: sat nr 0, elevation: 0, azimuth: 0, snr: 0 dbm
RECEIVED:$GPRMC,145657.640,A,4046.62816,N,01447.25049,E,0.7,167.4,040822,,,A*66
"
$xxRMC: raw coordinates and speed: (40.777137756,14.787508964) 7/10
$xxRMC fixed-point coordinates and speed scaled to three decimal places: (4046628,1447250) 700
$xxRMC floating point degree coordinates and speed: (40.777137756,14.787508010) 0.699999988
RECEIVED:$GNGSA,A,3,09,17,04,19,01,06,03,31,,,,,1.6,0.9,1.4*22
"
RECEIVED:$GPGSV,3,1,09,04,78,030,47,09,60,247,48,03,53,076,47,06,34,314,46*79
"
$xxGSV: message 1 of 3
$xxGSV: sattelites in view: 9
$xxGSV: sat nr 4, elevation: 78, azimuth: 30, snr: 47 dbm
$xxGSV: sat nr 9, elevation: 60, azimuth: 247, snr: 48 dbm
$xxGSV: sat nr 3, elevation: 53, azimuth: 76, snr: 47 dbm
$xxGSV: sat nr 6, elevation: 34, azimuth: 314, snr: 46 dbm
RECEIVED:$GLGSV,3,1,12,83,59,280,37,67,51,027,,68,49,294,,82,42,202,51*69
"
$xxGSV: message 1 of 3
$xxGSV: sattelites in view: 12
$xxGSV: sat nr 83, elevation: 59, azimuth: 280, snr: 37 dbm
$xxGSV: sat nr 67, elevation: 51, azimuth: 27, snr: 0 dbm
$xxGSV: sat nr 68, elevation: 49, azimuth: 294, snr: 0 dbm
$xxGSV: sat nr 82, elevation: 42, azimuth: 202, snr: 51 dbm
RECEIVED:$GPGLL,4046.62816,N,01447.25049,E,145657.640,A,A*5E
"
$xxGll raw latitude,longitude and altitude: (40.777137756,14.787508964)
RECEIVED:$GPGGA,145658.000,4046.62808,N,01447.25043,E,1,11,0.9,258.74,M,42.0,M,,*60
"
$xxGGA: coordinates (40.777137756,14.787506103), altitude=0.000000000, height=0.000000000 
RECEIVED:$GNGSA,A,3,82,76,83,,,,,,,,,,1.5,0.9,1.3*23
"
RECEIVED:$GPGSV,3,2,09,01,29,155,43,19,27,269,44,17,23,242,47,31,11,038,38*7F
"
$xxGSV: message 2 of 3
$xxGSV: sattelites in view: 9
$xxGSV: sat nr 1, elevation: 29, azimuth: 155, snr: 43 dbm
$xxGSV: sat nr 19, elevation: 27, azimuth: 269, snr: 44 dbm
$xxGSV: sat nr 17, elevation: 23, azimuth: 242, snr: 47 dbm
$xxGSV: sat nr 31, elevation: 11, azimuth: 38, snr: 38 dbm
RECEIVED:$GLGSV,3,2,12,77,24,091,,76,17,040,46,84,13,335,,66,09,061,*6D
"
$xxGSV: message 2 of 3
$xxGSV: sattelites in view: 12
$xxGSV: sat nr 77, elevation: 24, azimuth: 91, snr: 0 dbm
$xxGSV: sat nr 76, elevation: 17, azimuth: 40, snr: 46 dbm
$xxGSV: sat nr 84, elevation: 13, azimuth: 335, snr: 0 dbm
$xxGSV: sat nr 66, elevation: 9, azimuth: 61, snr: 0 dbm
RECEIVED:$PSTMCPU,85.07,-1,49*45
"
$xxxxx sentence is not valid
RECEIVED:$GPGGA,145659.000,4046.62786,N,01447.25067,E,1,14,0.8,258.69,M,42.0,M,,*66
"
$xxGGA: coordinates (40.777130126,14.787512779), altitude=0.000000000, height=0.000000000 
RECEIVED:$GNGSA,A,3,82,76,69,83,67,68,,,,,,,1.3,0.8,1.0*27
"
RECEIVED:$GPGSV,3,2,09,01,29,155,42,19,27,269,45,17,23,242,48,31,11,038,38*70
"
$xxGSV: message 2 of 3
$xxGSV: sattelites in view: 9
$xxGSV: sat nr 1, elevation: 29, azimuth: 155, snr: 42 dbm
$xxGSV: sat nr 19, elevation: 27, azimuth: 269, snr: 45 dbm
$xxGSV: sat nr 17, elevation: 23, azimuth: 242, snr: 48 dbm
$xxGSV: sat nr 31, elevation: 11, azimuth: 38, snr: 38 dbm
RECEIVED:$GLGSV,3,2,10,77,24,091,38,76,17,040,46,84,13,335,,66,09,061,*64
"
$xxGSV: message 2 of 3
$xxGSV: sattelites in view: 10
$xxGSV: sat nr 77, elevation: 24, azimuth: 91, snr: 38 dbm
$xxGSV: sat nr 76, elevation: 17, azimuth: 40, snr: 46 dbm
$xxGSV: sat nr 84, elevation: 13, azimuth: 335, snr: 0 dbm
$xxGSV: sat nr 66, elevation: 9, azimuth: 61, snr: 0 dbm
RECEIVED:$PSTMCPU,89.30,-1,49*4D
"
$xxxxx sentence is not valid
RECEIVED:$GPRMC,145700.000,A,4046.62747,N,01447.25078,E,0.9,169.1,040822,,,A*6B
"
$xxRMC: raw coordinates and speed: (40.777122497,14.787512779) 9/10
$xxRMC fixed-point coordinates and speed scaled to three decimal places: (4046627,1447251) 900
$xxRMC floating point degree coordinates and speed: (40.777126312,14.787512779) 0.899999976
RECEIVED:$GNGSA,A,3,09,17,04,19,01,06,03,31,,,,,1.3,0.8,1.0*22
"
RECEIVED:$GPGSV,3,1,10,04,78,030,47,09,60,247,49,03,53,076,48,06,34,314,46*7F
"
$xxGSV: message 1 of 3
$xxGSV: sattelites in view: 10
$xxGSV: sat nr 4, elevation: 78, azimuth: 30, snr: 47 dbm
$xxGSV: sat nr 9, elevation: 60, azimuth: 247, snr: 49 dbm
$xxGSV: sat nr 3, elevation: 53, azimuth: 76, snr: 48 dbm
$xxGSV: sat nr 6, elevation: 34, azimuth: 314, snr: 46 dbm
RECEIVED:$GLGSV,3,1,10,83,59,280,37,67,51,027,49,68,49,294,47,82,42,202,50*64
"
$xxGSV: message 1 of 3
$xxGSV: sattelites in view: 10
$xxGSV: sat nr 83, elevation: 59, azimuth: 280, snr: 37 dbm
$xxGSV: sat nr 67, elevation: 51, azimuth: 27, snr: 49 dbm
$xxGSV: sat nr 68, elevation: 49, azimuth: 294, snr: 47 dbm
$xxGSV: sat nr 82, elevation: 42, azimuth: 202, snr: 50 dbm
RECEIVED:$GPGLL,4046.62747,N,01447.25078,E,145700.000,A,A*56
"
$xxGll raw latitude,longitude and altitude: (40.777122497,14.787512779)
RECEIVED:$GPRMC,145701.000,A,4046.62734,N,01447.25088,E,1.0,166.3,040822,,,A*64
"
$xxRMC: raw coordinates and speed: (40.777118682,14.787513732) 10/10
$xxRMC fixed-point coordinates and speed scaled to three decimal places: (4046627,1447251) 1000
$xxRMC floating point degree coordinates and speed: (40.777122497,14.787514686) 1.000000000
RECEIVED:$GNGSA,A,3,09,17,04,19,01,06,03,31,,,,,1.3,0.8,1.0*22
"
RECEIVED:$GPGSV,3,1,10,04,78,030,47,09,60,247,48,03,53,076,47,06,34,314,46*71
"
$xxGSV: message 1 of 3
$xxGSV: sattelites in view: 10
$xxGSV: sat nr 4, elevation: 78, azimuth: 30, snr: 47 dbm
$xxGSV: sat nr 9, elevation: 60, azimuth: 247, snr: 48 dbm
$xxGSV: sat nr 3, elevation: 53, azimuth: 76, snr: 47 dbm
$xxGSV: sat nr 6, elevation: 34, azimuth: 314, snr: 46 dbm
RECEIVED:$GLGSV,3,1,10,83,59,280,37,67,51,027,49,68,49,294,47,82,42,202,49*6C
"
$xxGSV: message 1 of 3
$xxGSV: sattelites in view: 10
$xxGSV: sat nr 83, elevation: 59, azimuth: 280, snr: 37 dbm
$xxGSV: sat nr 67, elevation: 51, azimuth: 27, snr: 49 dbm
$xxGSV: sat nr 68, elevation: 49, azimuth: 294, snr: 47 dbm
$xxGSV: sat nr 82, elevation: 42, azimuth: 202, snr: 49 dbm
RECEIVED:$GPGLL,4046.62734,N,01447.25088,E,145701.000,A,A*5C
"
$xxGll raw latitude,longitude and altitude: (40.777118682,14.787513732)
RECEIVED:$GPRMC,145702.000,A,4046.62687,N,01447.25085,E,0.6,167.5,040822,,,A*63
"
$xxRMC: raw coordinates and speed: (40.777118682,14.787513732) 6/10
$xxRMC fixed-point coordinates and speed scaled to three decimal places: (4046627,1447251) 600
$xxRMC floating point degree coordinates and speed: (40.777114868,14.787513732) 0.600000023
RECEIVED:$GNGSA,A,3,09,17,04,19,01,06,03,31,,,,,1.3,0.8,1.0*22
"
RECEIVED:$GPGSV,3,1,10,04,78,030,47,09,60,247,49,03,53,076,48,06,34,314,46*7F
"
$xxGSV: message 1 of 3
$xxGSV: sattelites in view: 10
$xxGSV: sat nr 4, elevation: 78, azimuth: 30, snr: 47 dbm
$xxGSV: sat nr 9, elevation: 60, azimuth: 247, snr: 49 dbm
$xxGSV: sat nr 3, elevation: 53, azimuth: 76, snr: 48 dbm
$xxGSV: sat nr 6, elevation: 34, azimuth: 314, snr: 46 dbm
RECEIVED:$GLGSV,3,1,10,83,59,280,37,67,51,027,49,68,49,294,47,82,42,202,49*6C
"
$xxGSV: message 1 of 3
$xxGSV: sattelites in view: 10
$xxGSV: sat nr 83, elevation: 59, azimuth: 280, snr: 37 dbm
$xxGSV: sat nr 67, elevation: 51, azimuth: 27, snr: 49 dbm
$xxGSV: sat nr 68, elevation: 49, azimuth: 294, snr: 47 dbm
$xxGSV: sat nr 82, elevation: 42, azimuth: 202, snr: 49 dbm
RECEIVED:$GPGLL,4046.62687,N,01447.25085,E,145702.000,A,A*5B
"
$xxGll raw latitude,longitude and altitude: (40.777118682,14.787513732)
RECEIVED:$GPRMC,145703.000,A,4046.62653,N,01447.25097,E,0.9,169.7,040822,,,A*6B
"
$xxRMC: raw coordinates and speed: (40.777111053,14.787517547) 9/10
$xxRMC fixed-point coordinates and speed scaled to three decimal places: (4046627,1447251) 900
$xxRMC floating point degree coordinates and speed: (40.777107238,14.787516593) 0.899999976
RECEIVED:$GNGSA,A,3,09,17,04,19,01,06,03,31,,,,,1.3,0.8,1.0*22
"
RECEIVED:$GPGSV,3,1,09,04,78,030,47,09,60,248,49,03,53,076,48,06,34,314,46*78
"
$xxGSV: message 1 of 3
$xxGSV: sattelites in view: 9
$xxGSV: sat nr 4, elevation: 78, azimuth: 30, snr: 47 dbm
$xxGSV: sat nr 9, elevation: 60, azimuth: 248, snr: 49 dbm
$xxGSV: sat nr 3, elevation: 53, azimuth: 76, snr: 48 dbm
$xxGSV: sat nr 6, elevation: 34, azimuth: 314, snr: 46 dbm
RECEIVED:$GLGSV,3,1,10,83,59,280,37,67,51,027,50,68,49,294,47,82,42,202,49*64
"
$xxGSV: message 1 of 3
$xxGSV: sattelites in view: 10
$xxGSV: sat nr 83, elevation: 59, azimuth: 280, snr: 37 dbm
$xxGSV: sat nr 67, elevation: 51, azimuth: 27, snr: 50 dbm
$xxGSV: sat nr 68, elevation: 49, azimuth: 294, snr: 47 dbm
$xxGSV: sat nr 82, elevation: 42, azimuth: 202, snr: 49 dbm
RECEIVED:$GPGLL,4046.62653,N,01447.25097,E,145703.000,A,A*50
"
$xxGll raw latitude,longitude and altitude: (40.777111053,14.787517547)
RECEIVED:$GPRMC,145704.000,A,4046.62631,N,01447.25092,E,1.1,167.6,040822,,,A*6B
"
$xxRMC: raw coordinates and speed: (40.777103424,14.787513732) 11/10
$xxRMC fixed-point coordinates and speed scaled to three decimal places: (4046626,1447251) 1100
$xxRMC floating point degree coordinates and speed: (40.777103424,14.787515640) 1.100000023
RECEIVED:$GNGSA,A,3,09,17,04,19,01,06,03,31,,,,,1.3,0.8,1.0*22
"
RECEIVED:$GPGSV,3,1,09,04,78,030,47,09,60,248,49,03,53,076,48,06,34,314,46*78
"
$xxGSV: message 1 of 3
$xxGSV: sattelites in view: 9
$xxGSV: sat nr 4, elevation: 78, azimuth: 30, snr: 47 dbm
$xxGSV: sat nr 9, elevation: 60, azimuth: 248, snr: 49 dbm
$xxGSV: sat nr 3, elevation: 53, azimuth: 76, snr: 48 dbm
$xxGSV: sat nr 6, elevation: 34, azimuth: 314, snr: 46 dbm
RECEIVED:$GLGSV,3,1,10,83,59,280,37,67,51,027,50,68,49,294,47,82,42,202,49*64
"
$xxGSV: message 1 of 3
$xxGSV: sattelites in view: 10
$xxGSV: sat nr 83, elevation: 59, azimuth: 280, snr: 37 dbm
$xxGSV: sat nr 67, elevation: 51, azimuth: 27, snr: 50 dbm
$xxGSV: sat nr 68, elevation: 49, azimuth: 294, snr: 47 dbm
$xxGSV: sat nr 82, elevation: 42, azimuth: 202, snr: 49 dbm
RECEIVED:$GPGLL,4046.62631,N,01447.25092,E,145704.000,A,A*56
"
$xxGll raw latitude,longitude and altitude: (40.777103424,14.787513732)
RECEIVED:$GPRMC,145705.000,A,4046.62578,N,01447.25099,E,1.5,165.4,040822,,,A*6B
"
$xxRMC: raw coordinates and speed: (40.777099609,14.787517547) 15/10
$xxRMC fixed-point coordinates and speed scaled to three decimal places: (4046626,1447251) 1500
$xxRMC floating point degree coordinates and speed: (40.777095794,14.787516593) 1.500000000
RECEIVED:$GNGSA,A,3,09,17,04,19,01,06,03,31,,,,,1.3,0.8,1.0*22
"
RECEIVED:$GPGSV,3,1,10,04,78,030,47,09,60,248,49,03,53,076,48,06,34,314,46*70
"
$xxGSV: message 1 of 3
$xxGSV: sattelites in view: 10
$xxGSV: sat nr 4, elevation: 78, azimuth: 30, snr: 47 dbm
$xxGSV: sat nr 9, elevation: 60, azimuth: 248, snr: 49 dbm
$xxGSV: sat nr 3, elevation: 53, azimuth: 76, snr: 48 dbm
$xxGSV: sat nr 6, elevation: 34, azimuth: 314, snr: 46 dbm
RECEIVED:$GLGSV,3,1,10,83,59,280,37,67,51,027,50,68,49,294,47,82,42,202,49*64
"
$xxGSV: message 1 of 3
$xxGSV: sattelites in view: 10
$xxGSV: sat nr 83, elevation: 59, azimuth: 280, snr: 37 dbm
$xxGSV: sat nr 67, elevation: 51, azimuth: 27, snr: 50 dbm
$xxGSV: sat nr 68, elevation: 49, azimuth: 294, snr: 47 dbm
$xxGSV: sat nr 82, elevation: 42, azimuth: 202, snr: 49 dbm
RECEIVED:$GPGLL,4046.62578,N,01447.25099,E,145705.000,A,A*52
"
$xxGll raw latitude,longitude and altitude: (40.777099609,14.787517547)
RECEIVED:$GPRMC,145706.000,A,4046.62529,N,01447.25116,E,1.1,163.5,040822,,,A*69
"
$xxRMC: raw coordinates and speed: (40.777084350,14.787520408) 11/10
$xxRMC fixed-point coordinates and speed scaled to three decimal places: (4046625,1447251) 1100
$xxRMC floating point degree coordinates and speed: (40.777088165,14.787519454) 1.100000023
RECEIVED:$GNGSA,A,3,09,17,04,19,01,06,03,31,,,,,1.3,0.8,1.0*22
"
RECEIVED:$GPGSV,3,1,10,04,78,030,47,09,60,248,49,03,53,076,48,06,34,314,46*70
"
$xxGSV: message 1 of 3
$xxGSV: sattelites in view: 10
$xxGSV: sat nr 4, elevation: 78, azimuth: 30, snr: 47 dbm
$xxGSV: sat nr 9, elevation: 60, azimuth: 248, snr: 49 dbm
$xxGSV: sat nr 3, elevation: 53, azimuth: 76, snr: 48 dbm
$xxGSV: sat nr 6, elevation: 34, azimuth: 314, snr: 46 dbm
RECEIVED:$GLGSV,3,1,10,83,59,280,37,67,51,027,50,68,49,294,48,82,42,202,49*6B
"
$xxGSV: message 1 of 3
$xxGSV: sattelites in view: 10
$xxGSV: sat nr 83, elevation: 59, azimuth: 280, snr: 37 dbm
$xxGSV: sat nr 67, elevation: 51, azimuth: 27, snr: 50 dbm
$xxGSV: sat nr 68, elevation: 49, azimuth: 294, snr: 48 dbm
$xxGSV: sat nr 82, elevation: 42, azimuth: 202, snr: 49 dbm
RECEIVED:$GPGLL,4046.62529,N,01447.25116,E,145706.000,A,A*53
"
$xxGll raw latitude,longitude and altitude: (40.777084350,14.787520408)
RECEIVED:$GPRMC,145707.000,A,4046.62485,N,01447.25080,E,0.3,158.6,040822,,,A*69
"
$xxRMC: raw coordinates and speed: (40.777084350,14.787513732) 3/10
$xxRMC fixed-point coordinates and speed scaled to three decimal places: (4046625,1447251) 300
$xxRMC floating point degree coordinates and speed: (40.777080535,14.787513732) 0.300000011
RECEIVED:$GNGSA,A,3,09,17,04,19,01,06,03,31,,,,,1.3,0.8,1.0*22
"
RECEIVED:$GPGSV,3,1,11,04,78,030,47,09,60,248,49,03,53,076,48,06,34,314,47*70
"
$xxGSV: message 1 of 3
$xxGSV: sattelites in view: 11
$xxGSV: sat nr 4, elevation: 78, azimuth: 30, snr: 47 dbm
$xxGSV: sat nr 9, elevation: 60, azimuth: 248, snr: 49 dbm
$xxGSV: sat nr 3, elevation: 53, azimuth: 76, snr: 48 dbm
$xxGSV: sat nr 6, elevation: 34, azimuth: 314, snr: 47 dbm
RECEIVED:$GLGSV,3,1,10,83,59,280,37,67,51,027,51,68,49,294,48,82,42,202,49*6A
"
$xxGSV: message 1 of 3
$xxGSV: sattelites in view: 10
$xxGSV: sat nr 83, elevation: 59, azimuth: 280, snr: 37 dbm
$xxGSV: sat nr 67, elevation: 51, azimuth: 27, snr: 51 dbm
$xxGSV: sat nr 68, elevation: 49, azimuth: 294, snr: 48 dbm
$xxGSV: sat nr 82, elevation: 42, azimuth: 202, snr: 49 dbm
RECEIVED:$GPGLL,4046.62485,N,01447.25080,E,145707.000,A,A*5B
"
$xxGll raw latitude,longitude and altitude: (40.777084350,14.787513732)
RECEIVED:$GPRMC,145708.000,A,4046.62456,N,01447.25030,E,1.1,329.6,040822,,,A*64
"
$xxRMC: raw coordinates and speed: (40.777080535,14.787504196) 11/10
$xxRMC fixed-point coordinates and speed scaled to three decimal places: (4046625,1447250) 1100
$xxRMC floating point degree coordinates and speed: (40.777076721,14.787505149) 1.100000023
RECEIVED:$GNGSA,A,3,09,17,04,19,01,06,03,31,,,,,1.3,0.8,1.0*22
"
RECEIVED:$GPGSV,3,1,11,04,78,030,47,09,60,248,49,03,53,076,48,06,34,314,47*70
"
$xxGSV: message 1 of 3
$xxGSV: sattelites in view: 11
$xxGSV: sat nr 4, elevation: 78, azimuth: 30, snr: 47 dbm
$xxGSV: sat nr 9, elevation: 60, azimuth: 248, snr: 49 dbm
$xxGSV: sat nr 3, elevation: 53, azimuth: 76, snr: 48 dbm
$xxGSV: sat nr 6, elevation: 34, azimuth: 314, snr: 47 dbm
RECEIVED:$GLGSV,3,1,10,83,59,280,37,67,51,027,51,68,49,294,48,82,42,202,49*6A
"
$xxGSV: message 1 of 3
$xxGSV: sattelites in view: 10
$xxGSV: sat nr 83, elevation: 59, azimuth: 280, snr: 37 dbm
$xxGSV: sat nr 67, elevation: 51, azimuth: 27, snr: 51 dbm
$xxGSV: sat nr 68, elevation: 49, azimuth: 294, snr: 48 dbm
$xxGSV: sat nr 82, elevation: 42, azimuth: 202, snr: 49 dbm
RECEIVED:$GPGLL,4046.62456,N,01447.25030,E,145708.000,A,A*51
"
$xxGll raw latitude,longitude and altitude: (40.777080535,14.787504196)
RECEIVED:$GPRMC,145709.000,A,4046.62504,N,01447.24960,E,3.2,316.3,040822,,,A*66
"
$xxRMC: raw coordinates and speed: (40.777084350,14.787493705) 32/10
$xxRMC fixed-point coordinates and speed scaled to three decimal places: (4046625,1447250) 3200
$xxRMC floating point degree coordinates and speed: (40.777084350,14.787493705) 3.200000047
RECEIVED:$GNGSA,A,3,09,17,04,19,01,06,03,31,,,,,1.3,0.8,1.0*22
"
RECEIVED:$GPGSV,3,1,11,04,78,030,47,09,60,248,49,03,53,076,48,06,34,314,46*71
"
$xxGSV: message 1 of 3
$xxGSV: sattelites in view: 11
$xxGSV: sat nr 4, elevation: 78, azimuth: 30, snr: 47 dbm
$xxGSV: sat nr 9, elevation: 60, azimuth: 248, snr: 49 dbm
$xxGSV: sat nr 3, elevation: 53, azimuth: 76, snr: 48 dbm
$xxGSV: sat nr 6, elevation: 34, azimuth: 314, snr: 46 dbm
RECEIVED:$GLGSV,3,1,10,83,59,280,37,67,51,027,50,68,49,294,48,82,42,202,49*6B
"
$xxGSV: message 1 of 3
$xxGSV: sattelites in view: 10
$xxGSV: sat nr 83, elevation: 59, azimuth: 280, snr: 37 dbm
$xxGSV: sat nr 67, elevation: 51, azimuth: 27, snr: 50 dbm
$xxGSV: sat nr 68, elevation: 49, azimuth: 294, snr: 48 dbm
$xxGSV: sat nr 82, elevation: 42, azimuth: 202, snr: 49 dbm
RECEIVED:$GPGLL,4046.62504,N,01447.24960,E,145709.000,A,A*5B
"
$xxGll raw latitude,longitude and altitude: (40.777084350,14.787493705)
RECEIVED:$GPRMC,145710.000,A,4046.62581,N,01447.24899,E,3.4,295.4,040822,,,A*6F
"
$xxRMC: raw coordinates and speed: (40.777099609,14.787482261) 34/10
$xxRMC fixed-point coordinates and speed scaled to three decimal places: (4046626,1447249) 3400
$xxRMC floating point degree coordinates and speed: (40.777095794,14.787483215) 3.400000095
RECEIVED:$GNGSA,A,3,09,17,04,19,01,06,03,31,,,,,1.3,0.7,1.0*2D
"
RECEIVED:$GPGSV,3,1,11,04,78,030,47,09,60,248,48,03,53,076,48,06,34,314,46*70
"
$xxGSV: message 1 of 3
$xxGSV: sattelites in view: 11
$xxGSV: sat nr 4, elevation: 78, azimuth: 30, snr: 47 dbm
$xxGSV: sat nr 9, elevation: 60, azimuth: 248, snr: 48 dbm
$xxGSV: sat nr 3, elevation: 53, azimuth: 76, snr: 48 dbm
$xxGSV: sat nr 6, elevation: 34, azimuth: 314, snr: 46 dbm
RECEIVED:$GLGSV,3,1,10,83,59,280,37,67,51,027,50,68,49,294,48,82,42,202,49*6B
"
$xxGSV: message 1 of 3
$xxGSV: sattelites in view: 10
$xxGSV: sat nr 83, elevation: 59, azimuth: 280, snr: 37 dbm
$xxGSV: sat nr 67, elevation: 51, azimuth: 27, snr: 50 dbm
$xxGSV: sat nr 68, elevation: 49, azimuth: 294, snr: 48 dbm
$xxGSV: sat nr 82, elevation: 42, azimuth: 202, snr: 49 dbm
RECEIVED:$GPGLL,4046.62581,N,01447.24899,E,145710.000,A,A*59
"
$xxGll raw latitude,longitude and altitude: (40.777099609,14.787482261)
RECEIVED:$GPRMC,145711.000,A,4046.62621,N,01447.24805,E,3.4,280.9,040822,,,A*6B
"
$xxRMC: raw coordinates and speed: (40.777103424,14.787466049) 34/10
$xxRMC fixed-point coordinates and speed scaled to three decimal places: (4046626,1447248) 3400
$xxRMC floating point degree coordinates and speed: (40.777103424,14.787467956) 3.400000095
RECEIVED:$GNGSA,A,3,09,17,04,19,01,06,03,31,,,,,1.3,0.7,1.0*2D
"
RECEIVED:$GPGSV,3,1,11,04,78,030,47,09,60,248,47,03,53,076,48,06,34,314,46*7F
"
$xxGSV: message 1 of 3
$xxGSV: sattelites in view: 11
$xxGSV: sat nr 4, elevation: 78, azimuth: 30, snr: 47 dbm
$xxGSV: sat nr 9, elevation: 60, azimuth: 248, snr: 47 dbm
$xxGSV: sat nr 3, elevation: 53, azimuth: 76, snr: 48 dbm
$xxGSV: sat nr 6, elevation: 34, azimuth: 314, snr: 46 dbm
RECEIVED:$GLGSV,3,1,10,83,59,280,38,67,51,027,49,68,49,294,48,82,42,202,49*6C
"
$xxGSV: message 1 of 3
$xxGSV: sattelites in view: 10
$xxGSV: sat nr 83, elevation: 59, azimuth: 280, snr: 38 dbm
$xxGSV: sat nr 67, elevation: 51, azimuth: 27, snr: 49 dbm
$xxGSV: sat nr 68, elevation: 49, azimuth: 294, snr: 48 dbm
$xxGSV: sat nr 82, elevation: 42, azimuth: 202, snr: 49 dbm
RECEIVED:$GPGLL,4046.62621,N,01447.24805,E,145711.000,A,A*54
"
$xxGll raw latitude,longitude and altitude: (40.777103424,14.787466049)
RECEIVED:$GPRMC,145712.000,A,4046.62636,N,01447.24672,E,3.8,279.8,040822,,,A*6B
"
$xxRMC: raw coordinates and speed: (40.777103424,14.787446022) 38/10
$xxRMC fixed-point coordinates and speed scaled to three decimal places: (4046626,1447247) 3800
$xxRMC floating point degree coordinates and speed: (40.777107238,14.787445068) 3.799999952
RECEIVED:$GNGSA,A,3,09,17,04,19,01,06,03,31,,,,,1.3,0.7,1.0*2D
"
RECEIVED:$GPGSV,3,1,11,04,78,030,47,09,60,248,47,03,53,076,47,06,34,314,46*70
"
$xxGSV: message 1 of 3
$xxGSV: sattelites in view: 11
$xxGSV: sat nr 4, elevation: 78, azimuth: 30, snr: 47 dbm
$xxGSV: sat nr 9, elevation: 60, azimuth: 248, snr: 47 dbm
$xxGSV: sat nr 3, elevation: 53, azimuth: 76, snr: 47 dbm
$xxGSV: sat nr 6, elevation: 34, azimuth: 314, snr: 46 dbm
RECEIVED:$GLGSV,3,1,10,83,59,280,38,67,51,027,49,68,49,294,49,82,42,202,48*6C
"
$xxGSV: message 1 of 3
$xxGSV: sattelites in view: 10
$xxGSV: sat nr 83, elevation: 59, azimuth: 280, snr: 38 dbm
$xxGSV: sat nr 67, elevation: 51, azimuth: 27, snr: 49 dbm
$xxGSV: sat nr 68, elevation: 49, azimuth: 294, snr: 49 dbm
$xxGSV: sat nr 82, elevation: 42, azimuth: 202, snr: 48 dbm
RECEIVED:$GPGLL,4046.62636,N,01447.24672,E,145712.000,A,A*5F
"
$xxGll raw latitude,longitude and altitude: (40.777103424,14.787446022)
RECEIVED:$GPRMC,145713.000,A,4046.62652,N,01447.24542,E,4.3,282.7,040822,,,A*6F
"
$xxRMC: raw coordinates and speed: (40.777111053,14.787423133) 43/10
$xxRMC fixed-point coordinates and speed scaled to three decimal places: (4046627,1447245) 4300
$xxRMC floating point degree coordinates and speed: (40.777107238,14.787424087) 4.300000190
RECEIVED:$GNGSA,A,3,09,17,04,19,01,06,03,31,,,,,1.3,0.7,1.0*2D
"
RECEIVED:$GPGSV,3,1,11,04,78,030,46,09,60,248,46,03,53,076,47,06,34,314,42*74
"
$xxGSV: message 1 of 3
$xxGSV: sattelites in view: 11
$xxGSV: sat nr 4, elevation: 78, azimuth: 30, snr: 46 dbm
$xxGSV: sat nr 9, elevation: 60, azimuth: 248, snr: 46 dbm
$xxGSV: sat nr 3, elevation: 53, azimuth: 76, snr: 47 dbm
