RECEIVED:  "$GPRMC,140747.000,V,4046.35185,N,01447.42800,E,0.0,0.0,120718,,,N*7E
"
$xxRMC: raw coordinates and speed: (40.772533416,14.790467262) 0/10
$xxRMC fixed-point coordinates and speed scaled to three decimal places: (4046352,1447428) 0
$xxRMC floating point degree coordinates and speed: (40.772529602,14.790466308) 0.000000000
RECEIVED:  "$GNGSA,A,1,,,,,,,,,,,,,99.0,99.0,99.0*1E
"
RECEIVED:  "$GPGSV,3,1,10,27,74,333,,10,72,112,,20,52,059,,16,46,204,*73
"
$xxGSV: message 1 of 3
$xxGSV: sattelites in view: 10
$xxGSV: sat nr 27, elevation: 74, azimuth: 333, snr: 0 dbm
$xxGSV: sat nr 10, elevation: 72, azimuth: 112, snr: 0 dbm
$xxGSV: sat nr 20, elevation: 52, azimuth: 59, snr: 0 dbm
$xxGSV: sat nr 16, elevation: 46, azimuth: 204, snr: 0 dbm
RECEIVED:  "$GLGSV,3,1,10,87,52,054,,72,50,068,,88,48,329,,65,46,147,*66
"
$xxGSV: message 1 of 3
$xxGSV: sattelites in view: 10
$xxGSV: sat nr 87, elevation: 52, azimuth: 54, snr: 0 dbm
$xxGSV: sat nr 72, elevation: 50, azimuth: 68, snr: 0 dbm
$xxGSV: sat nr 88, elevation: 48, azimuth: 329, snr: 0 dbm
$xxGSV: sat nr 65, elevation: 46, azimuth: 147, snr: 0 dbm
RECEIVED:  "$GPGLL,4046.35185,N,01447.42800,E,140747.000,V,N*44
"
$xxGll: raw latitude,longitude and altitude: (40.772533416,14.790467262)
RECEIVED:  "$GPRMC,140748.000,V,4046.35185,N,01447.42800,E,0.0,0.0,120718,,,N*71
"
$xxRMC: raw coordinates and speed: (40.772533416,14.790467262) 0/10
$xxRMC fixed-point coordinates and speed scaled to three decimal places: (4046352,1447428) 0
$xxRMC floating point degree coordinates and speed: (40.772529602,14.790466308) 0.000000000
RECEIVED:  "$GNGSA,A,1,,,,,,,,,,,,,99.0,99.0,99.0*1E
"
RECEIVED:  "$GPGSV,3,1,10,27,74,333,,10,72,112,,20,52,059,,16,46,204,*73
"
$xxGSV: message 1 of 3
$xxGSV: sattelites in view: 10
$xxGSV: sat nr 27, elevation: 74, azimuth: 333, snr: 0 dbm
$xxGSV: sat nr 10, elevation: 72, azimuth: 112, snr: 0 dbm
$xxGSV: sat nr 20, elevation: 52, azimuth: 59, snr: 0 dbm
$xxGSV: sat nr 16, elevation: 46, azimuth: 204, snr: 0 dbm
RECEIVED:  "$GLGSV,3,1,10,87,52,054,,72,50,068,,88,48,329,,65,46,147,*66
"
$xxGSV: message 1 of 3
$xxGSV: sattelites in view: 10
$xxGSV: sat nr 87, elevation: 52, azimuth: 54, snr: 0 dbm
$xxGSV: sat nr 72, elevation: 50, azimuth: 68, snr: 0 dbm
$xxGSV: sat nr 88, elevation: 48, azimuth: 329, snr: 0 dbm
$xxGSV: sat nr 65, elevation: 46, azimuth: 147, snr: 0 dbm
RECEIVED:  "$GPGLL,4046.35185,N,01447.42800,E,140748.000,V,N*4B
"
$xxGll: raw latitude,longitude and altitude: (40.772533416,14.790467262)
RECEIVED:  "$GPRMC,140749.000,V,4046.35185,N,01447.42800,E,0.0,0.0,120718,,,N*70
"
$xxRMC: raw coordinates and speed: (40.772533416,14.790467262) 0/10
$xxRMC fixed-point coordinates and speed scaled to three decimal places: (4046352,1447428) 0
$xxRMC floating point degree coordinates and speed: (40.772529602,14.790466308) 0.000000000
RECEIVED:  "$GNGSA,A,1,,,,,,,,,,,,,99.0,99.0,99.0*1E
"
RECEIVED:  "$GPGSV,3,1,10,27,74,333,,10,72,112,,20,52,059,,16,46,204,*73
"
$xxGSV: message 1 of 3
$xxGSV: sattelites in view: 10
$xxGSV: sat nr 27, elevation: 74, azimuth: 333, snr: 0 dbm
$xxGSV: sat nr 10, elevation: 72, azimuth: 112, snr: 0 dbm
$xxGSV: sat nr 20, elevation: 52, azimuth: 59, snr: 0 dbm
$xxGSV: sat nr 16, elevation: 46, azimuth: 204, snr: 0 dbm
RECEIVED:  "$GLGSV,3,1,10,87,52,054,,72,50,068,,88,48,329,,65,46,147,*66
"
$xxGSV: message 1 of 3
$xxGSV: sattelites in view: 10
$xxGSV: sat nr 87, elevation: 52, azimuth: 54, snr: 0 dbm
$xxGSV: sat nr 72, elevation: 50, azimuth: 68, snr: 0 dbm
$xxGSV: sat nr 88, elevation: 48, azimuth: 329, snr: 0 dbm
$xxGSV: sat nr 65, elevation: 46, azimuth: 147, snr: 0 dbm
RECEIVED:  "$GPGLL,4046.35185,N,01447.42800,E,140749.000,V,N*4A
"
$xxGll: raw latitude,longitude and altitude: (40.772533416,14.790467262)
RECEIVED:  "$GPRMC,140750.000,V,4046.35185,N,01447.42800,E,0.0,0.0,120718,,,N*78
"
$xxRMC: raw coordinates and speed: (40.772533416,14.790467262) 0/10
$xxRMC fixed-point coordinates and speed scaled to three decimal places: (4046352,1447428) 0
$xxRMC floating point degree coordinates and speed: (40.772529602,14.790466308) 0.000000000
RECEIVED:  "$GNGSA,A,1,,,,,,,,,,,,,99.0,99.0,99.0*1E
"
RECEIVED:  "$GPGSV,3,1,10,27,74,333,,10,72,112,,20,52,059,,16,46,204,*73
"
$xxGSV: message 1 of 3
$xxGSV: sattelites in view: 10
$xxGSV: sat nr 27, elevation: 74, azimuth: 333, snr: 0 dbm
$xxGSV: sat nr 10, elevation: 72, azimuth: 112, snr: 0 dbm
$xxGSV: sat nr 20, elevation: 52, azimuth: 59, snr: 0 dbm
$xxGSV: sat nr 16, elevation: 46, azimuth: 204, snr: 0 dbm
RECEIVED:  "$GLGSV,3,1,10,87,52,054,,72,50,068,,88,48,329,,65,46,147,*66
"
$xxGSV: message 1 of 3
$xxGSV: sattelites in view: 10
$xxGSV: sat nr 87, elevation: 52, azimuth: 54, snr: 0 dbm
$xxGSV: sat nr 72, elevation: 50, azimuth: 68, snr: 0 dbm
$xxGSV: sat nr 88, elevation: 48, azimuth: 329, snr: 0 dbm
$xxGSV: sat nr 65, elevation: 46, azimuth: 147, snr: 0 dbm
RECEIVED:  "$GPGLL,4046.35185,N,01447.42800,E,140750.000,V,N*42
"
$xxGll: raw latitude,longitude and altitude: (40.772533416,14.790467262)
RECEIVED:  "$GPRMC,140751.000,V,4046.35185,N,01447.42800,E,0.0,0.0,120718,,,N*79
"
$xxRMC: raw coordinates and speed: (40.772533416,14.790467262) 0/10
$xxRMC fixed-point coordinates and speed scaled to three decimal places: (4046352,1447428) 0
$xxRMC floating point degree coordinates and speed: (40.772529602,14.790466308) 0.000000000
RECEIVED:  "$GNGSA,A,1,,,,,,,,,,,,,99.0,99.0,99.0*1E
"
RECEIVED:  "$GPGSV,3,1,10,27,74,333,,10,72,112,,20,52,059,,16,46,204,*73
"
$xxGSV: message 1 of 3
$xxGSV: sattelites in view: 10
$xxGSV: sat nr 27, elevation: 74, azimuth: 333, snr: 0 dbm
$xxGSV: sat nr 10, elevation: 72, azimuth: 112, snr: 0 dbm
$xxGSV: sat nr 20, elevation: 52, azimuth: 59, snr: 0 dbm
$xxGSV: sat nr 16, elevation: 46, azimuth: 204, snr: 0 dbm
RECEIVED:  "$GLGSV,3,1,10,87,52,054,,72,50,068,,88,48,329,,65,46,147,*66
"
$xxGSV: message 1 of 3
$xxGSV: sattelites in view: 10
$xxGSV: sat nr 87, elevation: 52, azimuth: 54, snr: 0 dbm
$xxGSV: sat nr 72, elevation: 50, azimuth: 68, snr: 0 dbm
$xxGSV: sat nr 88, elevation: 48, azimuth: 329, snr: 0 dbm
$xxGSV: sat nr 65, elevation: 46, azimuth: 147, snr: 0 dbm
RECEIVED:  "$GPGLL,4046.35185,N,01447.42800,E,140751.000,V,N*43
"
$xxGll: raw latitude,longitude and altitude: (40.772533416,14.790467262)
RECEIVED:  "$GPRMC,140752.000,V,4046.35185,N,01447.42800,E,0.0,0.0,120718,,,N*7A
"
$xxRMC: raw coordinates and speed: (40.772533416,14.790467262) 0/10
$xxRMC fixed-point coordinates and speed scaled to three decimal places: (4046352,1447428) 0
$xxRMC floating point degree coordinates and speed: (40.772529602,14.790466308) 0.000000000
RECEIVED:  "$GNGSA,A,1,,,,,,,,,,,,,99.0,99.0,99.0*1E
"
RECEIVED:  "$GPGSV,3,1,10,27,74,333,,10,72,112,,20,52,059,,16,46,204,*73
"
$xxGSV: message 1 of 3
$xxGSV: sattelites in view: 10
$xxGSV: sat nr 27, elevation: 74, azimuth: 333, snr: 0 dbm
$xxGSV: sat nr 10, elevation: 72, azimuth: 112, snr: 0 dbm
$xxGSV: sat nr 20, elevation: 52, azimuth: 59, snr: 0 dbm
$xxGSV: sat nr 16, elevation: 46, azimuth: 204, snr: 0 dbm
RECEIVED:  "$GLGSV,3,1,10,87,52,054,,72,50,068,,88,48,329,,65,46,147,*66
"
$xxGSV: message 1 of 3
$xxGSV: sattelites in view: 10
$xxGSV: sat nr 87, elevation: 52, azimuth: 54, snr: 0 dbm
$xxGSV: sat nr 72, elevation: 50, azimuth: 68, snr: 0 dbm
$xxGSV: sat nr 88, elevation: 48, azimuth: 329, snr: 0 dbm
$xxGSV: sat nr 65, elevation: 46, azimuth: 147, snr: 0 dbm
RECEIVED:  "$GPGLL,4046.35185,N,01447.42800,E,140752.000,V,N*40
"
$xxGll: raw latitude,longitude and altitude: (40.772533416,14.790467262)
RECEIVED:  "$GPRMC,140753.000,V,4046.35185,N,01447.42800,E,0.0,0.0,120718,,,N*7B
"
$xxRMC: raw coordinates and speed: (40.772533416,14.790467262) 0/10
$xxRMC fixed-point coordinates and speed scaled to three decimal places: (4046352,1447428) 0
$xxRMC floating point degree coordinates and speed: (40.772529602,14.790466308) 0.000000000
RECEIVED:  "$GNGSA,A,1,,,,,,,,,,,,,99.0,99.0,99.0*1E
"
RECEIVED:  "$GPGSV,3,1,10,27,74,333,,10,72,112,,20,52,059,,16,46,204,*73
"
$xxGSV: message 1 of 3
$xxGSV: sattelites in view: 10
$xxGSV: sat nr 27, elevation: 74, azimuth: 333, snr: 0 dbm
$xxGSV: sat nr 10, elevation: 72, azimuth: 112, snr: 0 dbm
$xxGSV: sat nr 20, elevation: 52, azimuth: 59, snr: 0 dbm
$xxGSV: sat nr 16, elevation: 46, azimuth: 204, snr: 0 dbm
RECEIVED:  "$GLGSV,3,1,10,87,52,054,,72,50,068,,88,48,329,,65,46,147,*66
"
$xxGSV: message 1 of 3
$xxGSV: sattelites in view: 10
$xxGSV: sat nr 87, elevation: 52, azimuth: 54, snr: 0 dbm
$xxGSV: sat nr 72, elevation: 50, azimuth: 68, snr: 0 dbm
$xxGSV: sat nr 88, elevation: 48, azimuth: 329, snr: 0 dbm
$xxGSV: sat nr 65, elevation: 46, azimuth: 147, snr: 0 dbm
RECEIVED:  "$GPGLL,4046.35185,N,01447.42800,E,140753.000,V,N*41
"
$xxGll: raw latitude,longitude and altitude: (40.772533416,14.790467262)
RECEIVED:  "$GPRMC,140754.000,V,4046.35185,N,01447.42800,E,0.0,0.0,120718,,,N*7C
"
$xxRMC: raw coordinates and speed: (40.772533416,14.790467262) 0/10
$xxRMC fixed-point coordinates and speed scaled to three decimal places: (4046352,1447428) 0
$xxRMC floating point degree coordinates and speed: (40.772529602,14.790466308) 0.000000000
RECEIVED:  "$GNGSA,A,1,,,,,,,,,,,,,99.0,99.0,99.0*1E
"
RECEIVED:  "$GPGSV,3,1,10,27,74,333,,10,72,112,,20,52,059,,16,46,204,*73
"
$xxGSV: message 1 of 3
$xxGSV: sattelites in view: 10
$xxGSV: sat nr 27, elevation: 74, azimuth: 333, snr: 0 dbm
$xxGSV: sat nr 10, elevation: 72, azimuth: 112, snr: 0 dbm
$xxGSV: sat nr 20, elevation: 52, azimuth: 59, snr: 0 dbm
$xxGSV: sat nr 16, elevation: 46, azimuth: 204, snr: 0 dbm
RECEIVED:  "$GLGSV,3,1,10,87,52,054,,72,50,068,,88,48,329,,65,46,147,*66
"
$xxGSV: message 1 of 3
$xxGSV: sattelites in view: 10
$xxGSV: sat nr 87, elevation: 52, azimuth: 54, snr: 0 dbm
$xxGSV: sat nr 72, elevation: 50, azimuth: 68, snr: 0 dbm
$xxGSV: sat nr 88, elevation: 48, azimuth: 329, snr: 0 dbm
$xxGSV: sat nr 65, elevation: 46, azimuth: 147, snr: 0 dbm
RECEIVED:  "$GPGLL,4046.35185,N,01447.42800,E,140754.000,V,N*46
"
$xxGll: raw latitude,longitude and altitude: (40.772533416,14.790467262)
RECEIVED:  "$GPRMC,140755.000,V,4046.35185,N,01447.42800,E,0.0,0.0,120718,,,N*7D
"
$xxRMC: raw coordinates and speed: (40.772533416,14.790467262) 0/10
$xxRMC fixed-point coordinates and speed scaled to three decimal places: (4046352,1447428) 0
$xxRMC floating point degree coordinates and speed: (40.772529602,14.790466308) 0.000000000
RECEIVED:  "$GNGSA,A,1,,,,,,,,,,,,,99.0,99.0,99.0*1E
"
RECEIVED:  "$GPGSV,3,1,10,27,74,333,,10,72,112,,20,52,059,,16,46,204,*73
"
$xxGSV: message 1 of 3
$xxGSV: sattelites in view: 10
$xxGSV: sat nr 27, elevation: 74, azimuth: 333, snr: 0 dbm
$xxGSV: sat nr 10, elevation: 72, azimuth: 112, snr: 0 dbm
$xxGSV: sat nr 20, elevation: 52, azimuth: 59, snr: 0 dbm
$xxGSV: sat nr 16, elevation: 46, azimuth: 204, snr: 0 dbm
RECEIVED:  "$GLGSV,3,1,10,87,52,054,,72,50,068,,88,48,329,,65,46,147,*66
"
$xxGSV: message 1 of 3
$xxGSV: sattelites in view: 10
$xxGSV: sat nr 87, elevation: 52, azimuth: 54, snr: 0 dbm
$xxGSV: sat nr 72, elevation: 50, azimuth: 68, snr: 0 dbm
$xxGSV: sat nr 88, elevation: 48, azimuth: 329, snr: 0 dbm
$xxGSV: sat nr 65, elevation: 46, azimuth: 147, snr: 0 dbm
RECEIVED:  "$GPGLL,4046.35185,N,01447.42800,E,140755.000,V,N*47
"
$xxGll: raw latitude,longitude and altitude: (40.772533416,14.790467262)
RECEIVED:  "$GPRMC,140756.000,V,4046.35185,N,01447.42800,E,0.0,0.0,120718,,,N*7E
"
$xxRMC: raw coordinates and speed: (40.772533416,14.790467262) 0/10
$xxRMC fixed-point coordinates and speed scaled to three decimal places: (4046352,1447428) 0
$xxRMC floating point degree coordinates and speed: (40.772529602,14.790466308) 0.000000000
RECEIVED:  "$GNGSA,A,1,,,,,,,,,,,,,99.0,99.0,99.0*1E
"
RECEIVED:  "$GPGSV,3,1,10,27,75,334,,10,72,112,,20,52,059,,16,46,204,*75
"
$xxGSV: message 1 of 3
$xxGSV: sattelites in view: 10
$xxGSV: sat nr 27, elevation: 75, azimuth: 334, snr: 0 dbm
$xxGSV: sat nr 10, elevation: 72, azimuth: 112, snr: 0 dbm
$xxGSV: sat nr 20, elevation: 52, azimuth: 59, snr: 0 dbm
$xxGSV: sat nr 16, elevation: 46, azimuth: 204, snr: 0 dbm
RECEIVED:  "$GLGSV,3,1,10,87,52,054,,72,50,068,,88,48,329,,65,46,147,*66
"
$xxGSV: message 1 of 3
$xxGSV: sattelites in view: 10
$xxGSV: sat nr 87, elevation: 52, azimuth: 54, snr: 0 dbm
$xxGSV: sat nr 72, elevation: 50, azimuth: 68, snr: 0 dbm
$xxGSV: sat nr 88, elevation: 48, azimuth: 329, snr: 0 dbm
$xxGSV: sat nr 65, elevation: 46, azimuth: 147, snr: 0 dbm
RECEIVED:  "$GPGLL,4046.35185,N,01447.42800,E,140756.000,V,N*44
"
$xxGll: raw latitude,longitude and altitude: (40.772533416,14.790467262)
RECEIVED:  "$GPRMC,140757.000,V,4046.35185,N,01447.42800,E,0.0,0.0,120718,,,N*7F
"
$xxRMC: raw coordinates and speed: (40.772533416,14.790467262) 0/10
$xxRMC fixed-point coordinates and speed scaled to three decimal places: (4046352,1447428) 0
$xxRMC floating point degree coordinates and speed: (40.772529602,14.790466308) 0.000000000
RECEIVED:  "$GNGSA,A,1,,,,,,,,,,,,,99.0,99.0,99.0*1E
"
RECEIVED:  "$GPGSV,3,1,10,27,75,334,,10,72,112,,20,52,059,,16,46,204,*75
"
$xxGSV: message 1 of 3
$xxGSV: sattelites in view: 10
$xxGSV: sat nr 27, elevation: 75, azimuth: 334, snr: 0 dbm
$xxGSV: sat nr 10, elevation: 72, azimuth: 112, snr: 0 dbm
$xxGSV: sat nr 20, elevation: 52, azimuth: 59, snr: 0 dbm
$xxGSV: sat nr 16, elevation: 46, azimuth: 204, snr: 0 dbm
RECEIVED:  "$GLGSV,3,1,10,87,52,054,,72,50,068,,88,48,329,,65,46,147,*66
"
$xxGSV: message 1 of 3
$xxGSV: sattelites in view: 10
$xxGSV: sat nr 87, elevation: 52, azimuth: 54, snr: 0 dbm
$xxGSV: sat nr 72, elevation: 50, azimuth: 68, snr: 0 dbm
$xxGSV: sat nr 88, elevation: 48, azimuth: 329, snr: 0 dbm
$xxGSV: sat nr 65, elevation: 46, azimuth: 147, snr: 0 dbm
RECEIVED:  "$GPGLL,4046.35185,N,01447.42800,E,140757.000,V,N*45
"
$xxGll: raw latitude,longitude and altitude: (40.772533416,14.790467262)
RECEIVED:  "$GPRMC,140758.000,V,4046.35185,N,01447.42800,E,0.0,0.0,120718,,,N*70
"
$xxRMC: raw coordinates and speed: (40.772533416,14.790467262) 0/10
$xxRMC fixed-point coordinates and speed scaled to three decimal places: (4046352,1447428) 0
$xxRMC floating point degree coordinates and speed: (40.772529602,14.790466308) 0.000000000
RECEIVED:  "$GNGSA,A,1,,,,,,,,,,,,,99.0,99.0,99.0*1E
"
RECEIVED:  "$GPGSV,3,1,10,27,75,334,,10,72,112,,20,52,059,,16,46,204,*75
"
$xxGSV: message 1 of 3
$xxGSV: sattelites in view: 10
$xxGSV: sat nr 27, elevation: 75, azimuth: 334, snr: 0 dbm
$xxGSV: sat nr 10, elevation: 72, azimuth: 112, snr: 0 dbm
$xxGSV: sat nr 20, elevation: 52, azimuth: 59, snr: 0 dbm
$xxGSV: sat nr 16, elevation: 46, azimuth: 204, snr: 0 dbm
RECEIVED:  "$GLGSV,3,1,10,87,52,054,,72,50,068,,88,48,329,,65,46,147,*66
"
$xxGSV: message 1 of 3
$xxGSV: sattelites in view: 10
$xxGSV: sat nr 87, elevation: 52, azimuth: 54, snr: 0 dbm
$xxGSV: sat nr 72, elevation: 50, azimuth: 68, snr: 0 dbm
$xxGSV: sat nr 88, elevation: 48, azimuth: 329, snr: 0 dbm
$xxGSV: sat nr 65, elevation: 46, azimuth: 147, snr: 0 dbm
RECEIVED:  "$GPGLL,4046.35185,N,01447.42800,E,140758.000,V,N*4A
"
$xxGll: raw latitude,longitude and altitude: (40.772533416,14.790467262)
RECEIVED:  "$GPRMC,140759.000,V,4046.35185,N,01447.42800,E,0.0,0.0,120718,,,N*71
"
$xxRMC: raw coordinates and speed: (40.772533416,14.790467262) 0/10
$xxRMC fixed-point coordinates and speed scaled to three decimal places: (4046352,1447428) 0
$xxRMC floating point degree coordinates and speed: (40.772529602,14.790466308) 0.000000000
RECEIVED:  "$GNGSA,A,1,,,,,,,,,,,,,99.0,99.0,99.0*1E
"
RECEIVED:  "$GPGSV,3,1,10,27,75,334,,10,72,112,,20,52,059,,16,46,204,*75
"
$xxGSV: message 1 of 3
$xxGSV: sattelites in view: 10
$xxGSV: sat nr 27, elevation: 75, azimuth: 334, snr: 0 dbm
$xxGSV: sat nr 10, elevation: 72, azimuth: 112, snr: 0 dbm
$xxGSV: sat nr 20, elevation: 52, azimuth: 59, snr: 0 dbm
$xxGSV: sat nr 16, elevation: 46, azimuth: 204, snr: 0 dbm
RECEIVED:  "$GLGSV,3,1,10,87,52,054,,72,50,068,,88,48,329,,65,46,147,*66
"
$xxGSV: message 1 of 3
$xxGSV: sattelites in view: 10
$xxGSV: sat nr 87, elevation: 52, azimuth: 54, snr: 0 dbm
$xxGSV: sat nr 72, elevation: 50, azimuth: 68, snr: 0 dbm
$xxGSV: sat nr 88, elevation: 48, azimuth: 329, snr: 0 dbm
$xxGSV: sat nr 65, elevation: 46, azimuth: 147, snr: 0 dbm
RECEIVED:  "$GPGLL,4046.35185,N,01447.42800,E,140759.000,V,N*4B
"
$xxGll: raw latitude,longitude and altitude: (40.772533416,14.790467262)
RECEIVED:  "$GPRMC,140800.000,V,4046.35185,N,01447.42800,E,0.0,0.0,120718,,,N*72
"
$xxRMC: raw coordinates and speed: (40.772533416,14.790467262) 0/10
$xxRMC fixed-point coordinates and speed scaled to three decimal places: (4046352,1447428) 0
$xxRMC floating point degree coordinates and speed: (40.772529602,14.790466308) 0.000000000
RECEIVED:  "$GNGSA,A,1,,,,,,,,,,,,,99.0,99.0,99.0*1E
"
RECEIVED:  "$GPGSV,3,1,10,27,75,334,,10,72,112,,20,52,059,,16,46,204,*75
"
$xxGSV: message 1 of 3
$xxGSV: sattelites in view: 10
$xxGSV: sat nr 27, elevation: 75, azimuth: 334, snr: 0 dbm
$xxGSV: sat nr 10, elevation: 72, azimuth: 112, snr: 0 dbm
$xxGSV: sat nr 20, elevation: 52, azimuth: 59, snr: 0 dbm
$xxGSV: sat nr 16, elevation: 46, azimuth: 204, snr: 0 dbm
RECEIVED:  "$GLGSV,3,1,10,87,52,054,,72,50,068,,88,48,329,,65,46,147,*66
"
$xxGSV: message 1 of 3
$xxGSV: sattelites in view: 10
$xxGSV: sat nr 87, elevation: 52, azimuth: 54, snr: 0 dbm
$xxGSV: sat nr 72, elevation: 50, azimuth: 68, snr: 0 dbm
$xxGSV: sat nr 88, elevation: 48, azimuth: 329, snr: 0 dbm
$xxGSV: sat nr 65, elevation: 46, azimuth: 147, snr: 0 dbm
RECEIVED:  "$GPGLL,4046.35185,N,01447.42800,E,140800.000,V,N*48
"
$xxGll: raw latitude,longitude and altitude: (40.772533416,14.790467262)
RECEIVED:  "$GPRMC,140801.000,V,4046.35185,N,01447.42800,E,0.0,0.0,120718,,,N*73
"
$xxRMC: raw coordinates and speed: (40.772533416,14.790467262) 0/10
$xxRMC fixed-point coordinates and speed scaled to three decimal places: (4046352,1447428) 0
$xxRMC floating point degree coordinates and speed: (40.772529602,14.790466308) 0.000000000
RECEIVED:  "$GNGSA,A,1,,,,,,,,,,,,,99.0,99.0,99.0*1E
"
RECEIVED:  "$GPGSV,3,1,10,27,75,334,,10,72,112,,20,52,059,,16,46,204,*75
"
$xxGSV: message 1 of 3
$xxGSV: sattelites in view: 10
$xxGSV: sat nr 27, elevation: 75, azimuth: 334, snr: 0 dbm
$xxGSV: sat nr 10, elevation: 72, azimuth: 112, snr: 0 dbm
$xxGSV: sat nr 20, elevation: 52, azimuth: 59, snr: 0 dbm
$xxGSV: sat nr 16, elevation: 46, azimuth: 204, snr: 0 dbm
RECEIVED:  "$GLGSV,3,1,10,87,52,054,,72,50,068,,88,48,329,,65,46,147,*66
"
$xxGSV: message 1 of 3
$xxGSV: sattelites in view: 10
$xxGSV: sat nr 87, elevation: 52, azimuth: 54, snr: 0 dbm
$xxGSV: sat nr 72, elevation: 50, azimuth: 68, snr: 0 dbm
$xxGSV: sat nr 88, elevation: 48, azimuth: 329, snr: 0 dbm
$xxGSV: sat nr 65, elevation: 46, azimuth: 147, snr: 0 dbm
RECEIVED:  "$GPGLL,4046.35185,N,01447.42800,E,140801.000,V,N*49
"
$xxGll: raw latitude,longitude and altitude: (40.772533416,14.790467262)
RECEIVED:  "$GPRMC,140802.000,V,4046.35185,N,01447.42800,E,0.0,0.0,120718,,,N*70
"
$xxRMC: raw coordinates and speed: (40.772533416,14.790467262) 0/10
$xxRMC fixed-point coordinates and speed scaled to three decimal places: (4046352,1447428) 0
$xxRMC floating point degree coordinates and speed: (40.772529602,14.790466308) 0.000000000
RECEIVED:  "$GNGSA,A,1,,,,,,,,,,,,,99.0,99.0,99.0*1E
"
RECEIVED:  "$GPGSV,3,1,10,27,75,334,,10,72,112,,20,52,059,,16,46,204,*75
"
$xxGSV: message 1 of 3
$xxGSV: sattelites in view: 10
$xxGSV: sat nr 27, elevation: 75, azimuth: 334, snr: 0 dbm
$xxGSV: sat nr 10, elevation: 72, azimuth: 112, snr: 0 dbm
$xxGSV: sat nr 20, elevation: 52, azimuth: 59, snr: 0 dbm
$xxGSV: sat nr 16, elevation: 46, azimuth: 204, snr: 0 dbm
RECEIVED:  "$GLGSV,3,1,10,87,52,054,,72,50,068,,88,48,329,,65,46,147,*66
"
$xxGSV: message 1 of 3
$xxGSV: sattelites in view: 10
$xxGSV: sat nr 87, elevation: 52, azimuth: 54, snr: 0 dbm
$xxGSV: sat nr 72, elevation: 50, azimuth: 68, snr: 0 dbm
$xxGSV: sat nr 88, elevation: 48, azimuth: 329, snr: 0 dbm
$xxGSV: sat nr 65, elevation: 46, azimuth: 147, snr: 0 dbm
RECEIVED:  "$GPGLL,4046.35185,N,01447.42800,E,140802.000,V,N*4A
"
$xxGll: raw latitude,longitude and altitude: (40.772533416,14.790467262)
RECEIVED:  "$GPRMC,140803.000,V,4046.35185,N,01447.42800,E,0.0,0.0,120718,,,N*71
"
$xxRMC: raw coordinates and speed: (40.772533416,14.790467262) 0/10
$xxRMC fixed-point coordinates and speed scaled to three decimal places: (4046352,1447428) 0
$xxRMC floating point degree coordinates and speed: (40.772529602,14.790466308) 0.000000000
RECEIVED:  "$GNGSA,A,1,,,,,,,,,,,,,99.0,99.0,99.0*1E
"
RECEIVED:  "$GPGSV,3,1,10,27,75,334,,10,72,112,,20,52,059,,16,46,204,*75
"
$xxGSV: message 1 of 3
$xxGSV: sattelites in view: 10
$xxGSV: sat nr 27, elevation: 75, azimuth: 334, snr: 0 dbm
$xxGSV: sat nr 10, elevation: 72, azimuth: 112, snr: 0 dbm
$xxGSV: sat nr 20, elevation: 52, azimuth: 59, snr: 0 dbm
$xxGSV: sat nr 16, elevation: 46, azimuth: 204, snr: 0 dbm
RECEIVED:  "$GLGSV,3,1,10,87,52,054,,72,50,068,,88,48,329,,65,46,147,*66
"
$xxGSV: message 1 of 3
$xxGSV: sattelites in view: 10
$xxGSV: sat nr 87, elevation: 52, azimuth: 54, snr: 0 dbm
$xxGSV: sat nr 72, elevation: 50, azimuth: 68, snr: 0 dbm
$xxGSV: sat nr 88, elevation: 48, azimuth: 329, snr: 0 dbm
$xxGSV: sat nr 65, elevation: 46, azimuth: 147, snr: 0 dbm
RECEIVED:  "$GPGLL,4046.35185,N,01447.42800,E,140803.000,V,N*4B
"
$xxGll: raw latitude,longitude and altitude: (40.772533416,14.790467262)
RECEIVED:  "$GPRMC,140804.000,V,4046.35185,N,01447.42800,E,0.0,0.0,120718,,,N*76
"
$xxRMC: raw coordinates and speed: (40.772533416,14.790467262) 0/10
$xxRMC fixed-point coordinates and speed scaled to three decimal places: (4046352,1447428) 0
$xxRMC floating point degree coordinates and speed: (40.772529602,14.790466308) 0.000000000
RECEIVED:  "$GNGSA,A,1,,,,,,,,,,,,,99.0,99.0,99.0*1E
"
RECEIVED:  "$GPGSV,3,1,10,27,75,334,,10,72,112,,20,52,059,,16,46,204,*75
"
$xxGSV: message 1 of 3
$xxGSV: sattelites in view: 10
$xxGSV: sat nr 27, elevation: 75, azimuth: 334, snr: 0 dbm
$xxGSV: sat nr 10, elevation: 72, azimuth: 112, snr: 0 dbm
$xxGSV: sat nr 20, elevation: 52, azimuth: 59, snr: 0 dbm
$xxGSV: sat nr 16, elevation: 46, azimuth: 204, snr: 0 dbm
RECEIVED:  "$GLGSV,3,1,10,87,52,054,,72,50,068,,88,48,329,,65,46,147,*66
"
$xxGSV: message 1 of 3
$xxGSV: sattelites in view: 10
$xxGSV: sat nr 87, elevation: 52, azimuth: 54, snr: 0 dbm
$xxGSV: sat nr 72, elevation: 50, azimuth: 68, snr: 0 dbm
$xxGSV: sat nr 88, elevation: 48, azimuth: 329, snr: 0 dbm
$xxGSV: sat nr 65, elevation: 46, azimuth: 147, snr: 0 dbm
RECEIVED:  "$GPGLL,4046.35185,N,01447.42800,E,140804.000,V,N*4C
"
$xxGll: raw latitude,longitude and altitude: (40.772533416,14.790467262)
RECEIVED:  "$GPRMC,140805.000,V,4046.35185,N,01447.42800,E,0.0,0.0,120718,,,N*77
"
$xxRMC: raw coordinates and speed: (40.772533416,14.790467262) 0/10
$xxRMC fixed-point coordinates and speed scaled to three decimal places: (4046352,1447428) 0
$xxRMC floating point degree coordinates and speed: (40.772529602,14.790466308) 0.000000000
RECEIVED:  "$GNGSA,A,1,,,,,,,,,,,,,99.0,99.0,99.0*1E
"
RECEIVED:  "$GPGSV,3,1,10,27,75,334,,10,72,112,,20,52,059,,16,46,204,*75
"
$xxGSV: message 1 of 3
$xxGSV: sattelites in view: 10
$xxGSV: sat nr 27, elevation: 75, azimuth: 334, snr: 0 dbm
$xxGSV: sat nr 10, elevation: 72, azimuth: 112, snr: 0 dbm
$xxGSV: sat nr 20, elevation: 52, azimuth: 59, snr: 0 dbm
$xxGSV: sat nr 16, elevation: 46, azimuth: 204, snr: 0 dbm
RECEIVED:  "$GLGSV,3,1,10,87,52,054,,72,50,068,,88,48,329,,65,46,147,*66
"
$xxGSV: message 1 of 3
$xxGSV: sattelites in view: 10
$xxGSV: sat nr 87, elevation: 52, azimuth: 54, snr: 0 dbm
$xxGSV: sat nr 72, elevation: 50, azimuth: 68, snr: 0 dbm
$xxGSV: sat nr 88, elevation: 48, azimuth: 329, snr: 0 dbm
$xxGSV: sat nr 65, elevation: 46, azimuth: 147, snr: 0 dbm
RECEIVED:  "$GPGLL,4046.35185,N,01447.42800,E,140805.000,V,N*4D
"
$xxGll: raw latitude,longitude and altitude: (40.772533416,14.790467262)
RECEIVED:  "$GPRMC,140806.000,V,4046.35185,N,01447.42800,E,0.0,0.0,120718,,,N*74
"
$xxRMC: raw coordinates and speed: (40.772533416,14.790467262) 0/10
$xxRMC fixed-point coordinates and speed scaled to three decimal places: (4046352,1447428) 0
$xxRMC floating point degree coordinates and speed: (40.772529602,14.790466308) 0.000000000
RECEIVED:  "$GNGSA,A,1,,,,,,,,,,,,,99.0,99.0,99.0*1E
"
RECEIVED:  "$GPGSV,3,1,10,27,75,334,,10,72,112,,20,52,059,,16,46,204,*75
"
$xxGSV: message 1 of 3
$xxGSV: sattelites in view: 10
$xxGSV: sat nr 27, elevation: 75, azimuth: 334, snr: 0 dbm
$xxGSV: sat nr 10, elevation: 72, azimuth: 112, snr: 0 dbm
$xxGSV: sat nr 20, elevation: 52, azimuth: 59, snr: 0 dbm
$xxGSV: sat nr 16, elevation: 46, azimuth: 204, snr: 0 dbm
RECEIVED:  "$GLGSV,3,1,10,87,52,054,,72,50,068,,88,48,329,,65,46,147,*66
"
$xxGSV: message 1 of 3
$xxGSV: sattelites in view: 10
$xxGSV: sat nr 87, elevation: 52, azimuth: 54, snr: 0 dbm
$xxGSV: sat nr 72, elevation: 50, azimuth: 68, snr: 0 dbm
$xxGSV: sat nr 88, elevation: 48, azimuth: 329, snr: 0 dbm
$xxGSV: sat nr 65, elevation: 46, azimuth: 147, snr: 0 dbm
RECEIVED:  "$GPGLL,4046.35185,N,01447.42800,E,140806.000,V,N*4E
"
$xxGll: raw latitude,longitude and altitude: (40.772533416,14.790467262)
RECEIVED:  "$GPRMC,140807.000,V,4046.35185,N,01447.42800,E,0.0,0.0,120718,,,N*75
"
$xxRMC: raw coordinates and speed: (40.772533416,14.790467262) 0/10
$xxRMC fixed-point coordinates and speed scaled to three decimal places: (4046352,1447428) 0
$xxRMC floating point degree coordinates and speed: (40.772529602,14.790466308) 0.000000000
RECEIVED:  "$GNGSA,A,1,,,,,,,,,,,,,99.0,99.0,99.0*1E
"
RECEIVED:  "$GPGSV,3,1,10,27,75,334,,10,72,112,,20,52,059,,16,46,204,*75
"
$xxGSV: message 1 of 3
$xxGSV: sattelites in view: 10
$xxGSV: sat nr 27, elevation: 75, azimuth: 334, snr: 0 dbm
$xxGSV: sat nr 10, elevation: 72, azimuth: 112, snr: 0 dbm
$xxGSV: sat nr 20, elevation: 52, azimuth: 59, snr: 0 dbm
$xxGSV: sat nr 16, elevation: 46, azimuth: 204, snr: 0 dbm
RECEIVED:  "$GLGSV,3,1,10,87,52,054,,72,50,068,,88,48,329,,65,46,147,*66
"
$xxGSV: message 1 of 3
$xxGSV: sattelites in view: 10
$xxGSV: sat nr 87, elevation: 52, azimuth: 54, snr: 0 dbm
$xxGSV: sat nr 72, elevation: 50, azimuth: 68, snr: 0 dbm
$xxGSV: sat nr 88, elevation: 48, azimuth: 329, snr: 0 dbm
$xxGSV: sat nr 65, elevation: 46, azimuth: 147, snr: 0 dbm
RECEIVED:  "$GPGLL,4046.35185,N,01447.42800,E,140807.000,V,N*4F
"
$xxGll: raw latitude,longitude and altitude: (40.772533416,14.790467262)
RECEIVED:  "$GPRMC,140808.000,V,4046.35185,N,01447.42800,E,0.0,0.0,120718,,,N*7A
"
$xxRMC: raw coordinates and speed: (40.772533416,14.790467262) 0/10
$xxRMC fixed-point coordinates and speed scaled to three decimal places: (4046352,1447428) 0
$xxRMC floating point degree coordinates and speed: (40.772529602,14.790466308) 0.000000000
RECEIVED:  "$GNGSA,A,1,,,,,,,,,,,,,99.0,99.0,99.0*1E
"
RECEIVED:  "$GPGSV,3,1,10,27,75,334,,10,72,112,,20,52,059,,16,46,204,*75
"
$xxGSV: message 1 of 3
$xxGSV: sattelites in view: 10
$xxGSV: sat nr 27, elevation: 75, azimuth: 334, snr: 0 dbm
$xxGSV: sat nr 10, elevation: 72, azimuth: 112, snr: 0 dbm
$xxGSV: sat nr 20, elevation: 52, azimuth: 59, snr: 0 dbm
$xxGSV: sat nr 16, elevation: 46, azimuth: 204, snr: 0 dbm
RECEIVED:  "$GLGSV,3,1,10,87,52,054,,72,50,068,,88,48,329,,65,46,147,*66
"
$xxGSV: message 1 of 3
$xxGSV: sattelites in view: 10
$xxGSV: sat nr 87, elevation: 52, azimuth: 54, snr: 0 dbm
$xxGSV: sat nr 72, elevation: 50, azimuth: 68, snr: 0 dbm
$xxGSV: sat nr 88, elevation: 48, azimuth: 329, snr: 0 dbm
$xxGSV: sat nr 65, elevation: 46, azimuth: 147, snr: 0 dbm
RECEIVED:  "$GPGLL,4046.35185,N,01447.42800,E,140808.000,V,N*40
"
$xxGll: raw latitude,longitude and altitude: (40.772533416,14.790467262)
RECEIVED:  "$GPRMC,140809.000,V,4046.35185,N,01447.42800,E,0.0,0.0,120718,,,N*7B
"
$xxRMC: raw coordinates and speed: (40.772533416,14.790467262) 0/10
$xxRMC fixed-point coordinates and speed scaled to three decimal places: (4046352,1447428) 0
$xxRMC floating point degree coordinates and speed: (40.772529602,14.790466308) 0.000000000
RECEIVED:  "$GNGSA,A,1,,,,,,,,,,,,,99.0,99.0,99.0*1E
"
RECEIVED:  "$GPGSV,3,1,10,27,75,334,,10,72,112,,20,52,059,,16,46,204,*75
"
$xxGSV: message 1 of 3
$xxGSV: sattelites in view: 10
$xxGSV: sat nr 27, elevation: 75, azimuth: 334, snr: 0 dbm
$xxGSV: sat nr 10, elevation: 72, azimuth: 112, snr: 0 dbm
$xxGSV: sat nr 20, elevation: 52, azimuth: 59, snr: 0 dbm
$xxGSV: sat nr 16, elevation: 46, azimuth: 204, snr: 0 dbm
RECEIVED:  "$GLGSV,3,1,10,87,52,054,,72,50,068,,88,48,329,,65,46,147,*66
"
$xxGSV: message 1 of 3
$xxGSV: sattelites in view: 10
$xxGSV: sat nr 87, elevation: 52, azimuth: 54, snr: 0 dbm
$xxGSV: sat nr 72, elevation: 50, azimuth: 68, snr: 0 dbm
$xxGSV: sat nr 88, elevation: 48, azimuth: 329, snr: 0 dbm
$xxGSV: sat nr 65, elevation: 46, azimuth: 147, snr: 0 dbm
RECEIVED:  "$GPGLL,4046.35185,N,01447.42800,E,140809.000,V,N*41
"
$xxGll: raw latitude,longitude and altitude: (40.772533416,14.790467262)
RECEIVED:  "$GPRMC,140810.000,V,4046.35185,N,01447.42800,E,0.0,0.0,120718,,,N*73
"
$xxRMC: raw coordinates and speed: (40.772533416,14.790467262) 0/10
$xxRMC fixed-point coordinates and speed scaled to three decimal places: (4046352,1447428) 0
$xxRMC floating point degree coordinates and speed: (40.772529602,14.790466308) 0.000000000
RECEIVED:  "$GNGSA,A,1,,,,,,,,,,,,,99.0,99.0,99.0*1E
"
RECEIVED:  "$GPGSV,3,1,10,27,75,334,,10,72,112,,20,52,059,,16,46,204,*75
"
$xxGSV: message 1 of 3
$xxGSV: sattelites in view: 10
$xxGSV: sat nr 27, elevation: 75, azimuth: 334, snr: 0 dbm
$xxGSV: sat nr 10, elevation: 72, azimuth: 112, snr: 0 dbm
$xxGSV: sat nr 20, elevation: 52, azimuth: 59, snr: 0 dbm
$xxGSV: sat nr 16, elevation: 46, azimuth: 204, snr: 0 dbm
RECEIVED:  "$GLGSV,3,1,10,87,52,054,,72,50,068,,88,48,329,,65,46,147,*66
"
$xxGSV: message 1 of 3
$xxGSV: sattelites in view: 10
$xxGSV: sat nr 87, elevation: 52, azimuth: 54, snr: 0 dbm
$xxGSV: sat nr 72, elevation: 50, azimuth: 68, snr: 0 dbm
$xxGSV: sat nr 88, elevation: 48, azimuth: 329, snr: 0 dbm
$xxGSV: sat nr 65, elevation: 46, azimuth: 147, snr: 0 dbm
RECEIVED:  "$GPGLL,4046.35185,N,01447.42800,E,140810.000,V,N*49
"
$xxGll: raw latitude,longitude and altitude: (40.772533416,14.790467262)
RECEIVED:  "$GPRMC,140811.000,V,4046.35185,N,01447.42800,E,0.0,0.0,120718,,,N*72
"
$xxRMC: raw coordinates and speed: (40.772533416,14.790467262) 0/10
$xxRMC fixed-point coordinates and speed scaled to three decimal places: (4046352,1447428) 0
$xxRMC floating point degree coordinates and speed: (40.772529602,14.790466308) 0.000000000
RECEIVED:  "$GNGSA,A,1,,,,,,,,,,,,,99.0,99.0,99.0*1E
"
RECEIVED:  "$GPGSV,3,1,10,27,75,334,,10,72,112,,20,52,059,,16,46,204,*75
"
$xxGSV: message 1 of 3
$xxGSV: sattelites in view: 10
$xxGSV: sat nr 27, elevation: 75, azimuth: 334, snr: 0 dbm
$xxGSV: sat nr 10, elevation: 72, azimuth: 112, snr: 0 dbm
$xxGSV: sat nr 20, elevation: 52, azimuth: 59, snr: 0 dbm
$xxGSV: sat nr 16, elevation: 46, azimuth: 204, snr: 0 dbm
RECEIVED:  "$GLGSV,3,1,10,87,52,054,,72,50,068,,88,48,329,,65,46,147,*66
"
$xxGSV: message 1 of 3
$xxGSV: sattelites in view: 10
$xxGSV: sat nr 87, elevation: 52, azimuth: 54, snr: 0 dbm
$xxGSV: sat nr 72, elevation: 50, azimuth: 68, snr: 0 dbm
$xxGSV: sat nr 88, elevation: 48, azimuth: 329, snr: 0 dbm
$xxGSV: sat nr 65, elevation: 46, azimuth: 147, snr: 0 dbm
RECEIVED:  "$GPGLL,4046.35185,N,01447.42800,E,140811.000,V,N*48
"
$xxGll: raw latitude,longitude and altitude: (40.772533416,14.790467262)
RECEIVED:  "$GPRMC,140812.000,V,4046.35185,N,01447.42800,E,0.0,0.0,120718,,,N*71
"
$xxRMC: raw coordinates and speed: (40.772533416,14.790467262) 0/10
$xxRMC fixed-point coordinates and speed scaled to three decimal places: (4046352,1447428) 0
$xxRMC floating point degree coordinates and speed: (40.772529602,14.790466308) 0.000000000
RECEIVED:  "$GNGSA,A,1,,,,,,,,,,,,,99.0,99.0,99.0*1E
"
RECEIVED:  "$GPGSV,3,1,10,27,75,334,,10,72,112,,20,52,059,,16,46,204,*75
"
$xxGSV: message 1 of 3
$xxGSV: sattelites in view: 10
$xxGSV: sat nr 27, elevation: 75, azimuth: 334, snr: 0 dbm
$xxGSV: sat nr 10, elevation: 72, azimuth: 112, snr: 0 dbm
$xxGSV: sat nr 20, elevation: 52, azimuth: 59, snr: 0 dbm
$xxGSV: sat nr 16, elevation: 46, azimuth: 204, snr: 0 dbm
RECEIVED:  "$GLGSV,3,1,10,87,52,054,,72,50,068,,88,48,329,,65,46,147,*66
"
$xxGSV: message 1 of 3
$xxGSV: sattelites in view: 10
$xxGSV: sat nr 87, elevation: 52, azimuth: 54, snr: 0 dbm
$xxGSV: sat nr 72, elevation: 50, azimuth: 68, snr: 0 dbm
$xxGSV: sat nr 88, elevation: 48, azimuth: 329, snr: 0 dbm
$xxGSV: sat nr 65, elevation: 46, azimuth: 147, snr: 0 dbm
RECEIVED:  "$GPGLL,4046.35185,N,01447.42800,E,140812.000,V,N*4B
"
$xxGll: raw latitude,longitude and altitude: (40.772533416,14.790467262)
RECEIVED:  "$GPRMC,140813.000,V,4046.35185,N,01447.42800,E,0.0,0.0,120718,,,N*70
"
$xxRMC: raw coordinates and speed: (40.772533416,14.790467262) 0/10
$xxRMC fixed-point coordinates and speed scaled to three decimal places: (4046352,1447428) 0
$xxRMC floating point degree coordinates and speed: (40.772529602,14.790466308) 0.000000000
RECEIVED:  "$GNGSA,A,1,,,,,,,,,,,,,99.0,99.0,99.0*1E
"
RECEIVED:  "$GPGSV,3,1,10,27,75,334,,10,72,112,,20,52,059,,16,46,204,*75
"
$xxGSV: message 1 of 3
$xxGSV: sattelites in view: 10
$xxGSV: sat nr 27, elevation: 75, azimuth: 334, snr: 0 dbm
$xxGSV: sat nr 10, elevation: 72, azimuth: 112, snr: 0 dbm
$xxGSV: sat nr 20, elevation: 52, azimuth: 59, snr: 0 dbm
$xxGSV: sat nr 16, elevation: 46, azimuth: 204, snr: 0 dbm
RECEIVED:  "$GLGSV,3,1,10,87,52,054,,72,50,068,,88,48,329,,65,46,147,*66
"
$xxGSV: message 1 of 3
$xxGSV: sattelites in view: 10
$xxGSV: sat nr 87, elevation: 52, azimuth: 54, snr: 0 dbm
$xxGSV: sat nr 72, elevation: 50, azimuth: 68, snr: 0 dbm
$xxGSV: sat nr 88, elevation: 48, azimuth: 329, snr: 0 dbm
$xxGSV: sat nr 65, elevation: 46, azimuth: 147, snr: 0 dbm
RECEIVED:  "$GPGLL,4046.35185,N,01447.42800,E,140813.000,V,N*4A
"
$xxGll: raw latitude,longitude and altitude: (40.772533416,14.790467262)
RECEIVED:  "$GPRMC,140814.000,V,4046.35185,N,01447.42800,E,0.0,0.0,120718,,,N*77
"
$xxRMC: raw coordinates and speed: (40.772533416,14.790467262) 0/10
$xxRMC fixed-point coordinates and speed scaled to three decimal places: (4046352,1447428) 0
$xxRMC floating point degree coordinates and speed: (40.772529602,14.790466308) 0.000000000
RECEIVED:  "$GNGSA,A,1,,,,,,,,,,,,,99.0,99.0,99.0*1E
"
RECEIVED:  "$GPGSV,3,1,10,27,75,334,,10,72,112,,20,52,059,,16,46,204,*75
"
$xxGSV: message 1 of 3
$xxGSV: sattelites in view: 10
$xxGSV: sat nr 27, elevation: 75, azimuth: 334, snr: 0 dbm
$xxGSV: sat nr 10, elevation: 72, azimuth: 112, snr: 0 dbm
$xxGSV: sat nr 20, elevation: 52, azimuth: 59, snr: 0 dbm
$xxGSV: sat nr 16, elevation: 46, azimuth: 204, snr: 0 dbm
RECEIVED:  "$GLGSV,3,1,10,87,52,054,,72,50,068,,88,48,330,,65,46,147,*6E
"
$xxGSV: message 1 of 3
$xxGSV: sattelites in view: 10
$xxGSV: sat nr 87, elevation: 52, azimuth: 54, snr: 0 dbm
$xxGSV: sat nr 72, elevation: 50, azimuth: 68, snr: 0 dbm
$xxGSV: sat nr 88, elevation: 48, azimuth: 330, snr: 0 dbm
$xxGSV: sat nr 65, elevation: 46, azimuth: 147, snr: 0 dbm
RECEIVED:  "$GPGLL,4046.35185,N,01447.42800,E,140814.000,V,N*4D
"
$xxGll: raw latitude,longitude and altitude: (40.772533416,14.790467262)
RECEIVED:  "$GPRMC,140815.000,V,4046.35185,N,01447.42800,E,0.0,0.0,120718,,,N*76
"
$xxRMC: raw coordinates and speed: (40.772533416,14.790467262) 0/10
$xxRMC fixed-point coordinates and speed scaled to three decimal places: (4046352,1447428) 0
$xxRMC floating point degree coordinates and speed: (40.772529602,14.790466308) 0.000000000
RECEIVED:  "$GNGSA,A,1,,,,,,,,,,,,,99.0,99.0,99.0*1E
"
RECEIVED:  "$GPGSV,3,1,10,27,75,334,,10,72,112,,20,52,059,,16,46,204,*75
"
$xxGSV: message 1 of 3
$xxGSV: sattelites in view: 10
$xxGSV: sat nr 27, elevation: 75, azimuth: 334, snr: 0 dbm
$xxGSV: sat nr 10, elevation: 72, azimuth: 112, snr: 0 dbm
$xxGSV: sat nr 20, elevation: 52, azimuth: 59, snr: 0 dbm
$xxGSV: sat nr 16, elevation: 46, azimuth: 204, snr: 0 dbm
RECEIVED:  "$GLGSV,3,1,10,87,52,054,,72,50,068,,88,48,330,,65,46,147,*6E
"
$xxGSV: message 1 of 3
$xxGSV: sattelites in view: 10
$xxGSV: sat nr 87, elevation: 52, azimuth: 54, snr: 0 dbm
$xxGSV: sat nr 72, elevation: 50, azimuth: 68, snr: 0 dbm
$xxGSV: sat nr 88, elevation: 48, azimuth: 330, snr: 0 dbm
$xxGSV: sat nr 65, elevation: 46, azimuth: 147, snr: 0 dbm
RECEIVED:  "$GPGLL,4046.35185,N,01447.42800,E,140815.000,V,N*4C
"
$xxGll: raw latitude,longitude and altitude: (40.772533416,14.790467262)
RECEIVED:  "$GPRMC,140816.000,V,4046.35185,N,01447.42800,E,0.0,0.0,120718,,,N*75
"
$xxRMC: raw coordinates and speed: (40.772533416,14.790467262) 0/10
$xxRMC fixed-point coordinates and speed scaled to three decimal places: (4046352,1447428) 0
$xxRMC floating point degree coordinates and speed: (40.772529602,14.790466308) 0.000000000
RECEIVED:  "$GNGSA,A,1,,,,,,,,,,,,,99.0,99.0,99.0*1E
"
RECEIVED:  "$GPGSV,3,1,10,27,75,334,,10,72,112,,20,52,059,,16,46,204,*75
"
$xxGSV: message 1 of 3
$xxGSV: sattelites in view: 10
$xxGSV: sat nr 27, elevation: 75, azimuth: 334, snr: 0 dbm
$xxGSV: sat nr 10, elevation: 72, azimuth: 112, snr: 0 dbm
$xxGSV: sat nr 20, elevation: 52, azimuth: 59, snr: 0 dbm
$xxGSV: sat nr 16, elevation: 46, azimuth: 204, snr: 0 dbm
RECEIVED:  "$GLGSV,3,1,10,87,52,055,,72,50,068,,88,48,330,,65,46,147,*6F
"
$xxGSV: message 1 of 3
$xxGSV: sattelites in view: 10
$xxGSV: sat nr 87, elevation: 52, azimuth: 55, snr: 0 dbm
$xxGSV: sat nr 72, elevation: 50, azimuth: 68, snr: 0 dbm
$xxGSV: sat nr 88, elevation: 48, azimuth: 330, snr: 0 dbm
$xxGSV: sat nr 65, elevation: 46, azimuth: 147, snr: 0 dbm
RECEIVED:  "$GPGLL,4046.35185,N,01447.42800,E,140816.000,V,N*4F
"
$xxGll: raw latitude,longitude and altitude: (40.772533416,14.790467262)
RECEIVED:  "$GPRMC,140817.000,V,4046.35185,N,01447.42800,E,0.0,0.0,120718,,,N*74
"
$xxRMC: raw coordinates and speed: (40.772533416,14.790467262) 0/10
$xxRMC fixed-point coordinates and speed scaled to three decimal places: (4046352,1447428) 0
$xxRMC floating point degree coordinates and speed: (40.772529602,14.790466308) 0.000000000
RECEIVED:  "$GNGSA,A,1,,,,,,,,,,,,,99.0,99.0,99.0*1E
"
RECEIVED:  "$GPGSV,3,1,10,27,75,334,,10,72,112,,20,52,059,,16,46,204,*75
"
$xxGSV: message 1 of 3
$xxGSV: sattelites in view: 10
$xxGSV: sat nr 27, elevation: 75, azimuth: 334, snr: 0 dbm
$xxGSV: sat nr 10, elevation: 72, azimuth: 112, snr: 0 dbm
$xxGSV: sat nr 20, elevation: 52, azimuth: 59, snr: 0 dbm
$xxGSV: sat nr 16, elevation: 46, azimuth: 204, snr: 0 dbm
RECEIVED:  "$GLGSV,3,1,10,87,52,055,,72,50,068,,88,48,330,,65,46,147,*6F
"
$xxGSV: message 1 of 3
$xxGSV: sattelites in view: 10
$xxGSV: sat nr 87, elevation: 52, azimuth: 55, snr: 0 dbm
$xxGSV: sat nr 72, elevation: 50, azimuth: 68, snr: 0 dbm
$xxGSV: sat nr 88, elevation: 48, azimuth: 330, snr: 0 dbm
$xxGSV: sat nr 65, elevation: 46, azimuth: 147, snr: 0 dbm
RECEIVED:  "$GPGLL,4046.35185,N,01447.42800,E,140817.000,V,N*4E
"
$xxGll: raw latitude,longitude and altitude: (40.772533416,14.790467262)
RECEIVED:  "$GPRMC,140818.000,V,4046.35185,N,01447.42800,E,0.0,0.0,120718,,,N*7B
"
$xxRMC: raw coordinates and speed: (40.772533416,14.790467262) 0/10
$xxRMC fixed-point coordinates and speed scaled to three decimal places: (4046352,1447428) 0
$xxRMC floating point degree coordinates and speed: (40.772529602,14.790466308) 0.000000000
RECEIVED:  "$GNGSA,A,1,,,,,,,,,,,,,99.0,99.0,99.0*1E
"
RECEIVED:  "$GPGSV,3,1,10,27,75,334,,10,72,112,,20,52,059,,16,46,204,*75
"
$xxGSV: message 1 of 3
$xxGSV: sattelites in view: 10
$xxGSV: sat nr 27, elevation: 75, azimuth: 334, snr: 0 dbm
$xxGSV: sat nr 10, elevation: 72, azimuth: 112, snr: 0 dbm
$xxGSV: sat nr 20, elevation: 52, azimuth: 59, snr: 0 dbm
$xxGSV: sat nr 16, elevation: 46, azimuth: 204, snr: 0 dbm
RECEIVED:  "$GLGSV,3,1,10,87,52,055,,72,50,068,,88,48,330,,65,46,147,*6F
"
$xxGSV: message 1 of 3
$xxGSV: sattelites in view: 10
$xxGSV: sat nr 87, elevation: 52, azimuth: 55, snr: 0 dbm
$xxGSV: sat nr 72, elevation: 50, azimuth: 68, snr: 0 dbm
$xxGSV: sat nr 88, elevation: 48, azimuth: 330, snr: 0 dbm
$xxGSV: sat nr 65, elevation: 46, azimuth: 147, snr: 0 dbm
RECEIVED:  "$GPGLL,4046.35185,N,01447.42800,E,140818.000,V,N*41
"
$xxGll: raw latitude,longitude and altitude: (40.772533416,14.790467262)
RECEIVED:  "$GPRMC,140819.000,V,4046.35185,N,01447.42800,E,0.0,0.0,120718,,,N*7A
"
$xxRMC: raw coordinates and speed: (40.772533416,14.790467262) 0/10
$xxRMC fixed-point coordinates and speed scaled to three decimal places: (4046352,1447428) 0
$xxRMC floating point degree coordinates and speed: (40.772529602,14.790466308) 0.000000000
RECEIVED:  "$GNGSA,A,1,,,,,,,,,,,,,99.0,99.0,99.0*1E
"
RECEIVED:  "$GPGSV,3,1,10,27,75,334,,10,72,112,,20,52,059,,16,46,204,*75
"
$xxGSV: message 1 of 3
$xxGSV: sattelites in view: 10
$xxGSV: sat nr 27, elevation: 75, azimuth: 334, snr: 0 dbm
$xxGSV: sat nr 10, elevation: 72, azimuth: 112, snr: 0 dbm
$xxGSV: sat nr 20, elevation: 52, azimuth: 59, snr: 0 dbm
$xxGSV: sat nr 16, elevation: 46, azimuth: 204, snr: 0 dbm
RECEIVED:  "$GLGSV,3,1,10,87,52,055,,72,50,068,,88,48,330,,65,46,147,*6F
"
$xxGSV: message 1 of 3
$xxGSV: sattelites in view: 10
$xxGSV: sat nr 87, elevation: 52, azimuth: 55, snr: 0 dbm
$xxGSV: sat nr 72, elevation: 50, azimuth: 68, snr: 0 dbm
$xxGSV: sat nr 88, elevation: 48, azimuth: 330, snr: 0 dbm
$xxGSV: sat nr 65, elevation: 46, azimuth: 147, snr: 0 dbm
RECEIVED:  "$GPGLL,4046.35185,N,01447.42800,E,140819.000,V,N*40
"
$xxGll: raw latitude,longitude and altitude: (40.772533416,14.790467262)
RECEIVED:  "$GPRMC,140820.000,V,4046.35185,N,01447.42800,E,0.0,0.0,120718,,,N*70
"
$xxRMC: raw coordinates and speed: (40.772533416,14.790467262) 0/10
$xxRMC fixed-point coordinates and speed scaled to three decimal places: (4046352,1447428) 0
$xxRMC floating point degree coordinates and speed: (40.772529602,14.790466308) 0.000000000
RECEIVED:  "$GNGSA,A,1,,,,,,,,,,,,,99.0,99.0,99.0*1E
"
RECEIVED:  "$GPGSV,3,1,10,27,75,334,,10,72,112,,20,52,059,,16,46,204,*75
"
$xxGSV: message 1 of 3
$xxGSV: sattelites in view: 10
$xxGSV: sat nr 27, elevation: 75, azimuth: 334, snr: 0 dbm
$xxGSV: sat nr 10, elevation: 72, azimuth: 112, snr: 0 dbm
$xxGSV: sat nr 20, elevation: 52, azimuth: 59, snr: 0 dbm
$xxGSV: sat nr 16, elevation: 46, azimuth: 204, snr: 0 dbm
RECEIVED:  "$GLGSV,3,1,10,87,52,055,,72,50,068,,88,48,330,,65,46,147,*6F
"
$xxGSV: message 1 of 3
$xxGSV: sattelites in view: 10
$xxGSV: sat nr 87, elevation: 52, azimuth: 55, snr: 0 dbm
$xxGSV: sat nr 72, elevation: 50, azimuth: 68, snr: 0 dbm
$xxGSV: sat nr 88, elevation: 48, azimuth: 330, snr: 0 dbm
$xxGSV: sat nr 65, elevation: 46, azimuth: 147, snr: 0 dbm
RECEIVED:  "$GPGLL,4046.35185,N,01447.42800,E,140820.000,V,N*4A
"
$xxGll: raw latitude,longitude and altitude: (40.772533416,14.790467262)
RECEIVED:  "$GPRMC,140821.000,V,4046.35185,N,01447.42800,E,0.0,0.0,120718,,,N*71
"
$xxRMC: raw coordinates and speed: (40.772533416,14.790467262) 0/10
$xxRMC fixed-point coordinates and speed scaled to three decimal places: (4046352,1447428) 0
$xxRMC floating point degree coordinates and speed: (40.772529602,14.790466308) 0.000000000
RECEIVED:  "$GNGSA,A,1,,,,,,,,,,,,,99.0,99.0,99.0*1E
"
RECEIVED:  "$GPGSV,3,1,10,27,75,334,,10,72,112,,20,52,059,,16,46,204,*75
"
$xxGSV: message 1 of 3
$xxGSV: sattelites in view: 10
$xxGSV: sat nr 27, elevation: 75, azimuth: 334, snr: 0 dbm
$xxGSV: sat nr 10, elevation: 72, azimuth: 112, snr: 0 dbm
$xxGSV: sat nr 20, elevation: 52, azimuth: 59, snr: 0 dbm
$xxGSV: sat nr 16, elevation: 46, azimuth: 204, snr: 0 dbm
RECEIVED:  "$GLGSV,3,1,10,87,52,055,,72,50,068,,88,48,330,,65,46,147,*6F
"
$xxGSV: message 1 of 3
$xxGSV: sattelites in view: 10
$xxGSV: sat nr 87, elevation: 52, azimuth: 55, snr: 0 dbm
$xxGSV: sat nr 72, elevation: 50, azimuth: 68, snr: 0 dbm
$xxGSV: sat nr 88, elevation: 48, azimuth: 330, snr: 0 dbm
$xxGSV: sat nr 65, elevation: 46, azimuth: 147, snr: 0 dbm
RECEIVED:  "$GPGLL,4046.35185,N,01447.42800,E,140821.000,V,N*4B
"
$xxGll: raw latitude,longitude and altitude: (40.772533416,14.790467262)
RECEIVED:  "$GPRMC,140822.000,V,4046.35185,N,01447.42800,E,0.0,0.0,120718,,,N*72
"
$xxRMC: raw coordinates and speed: (40.772533416,14.790467262) 0/10
$xxRMC fixed-point coordinates and speed scaled to three decimal places: (4046352,1447428) 0
$xxRMC floating point degree coordinates and speed: (40.772529602,14.790466308) 0.000000000
RECEIVED:  "$GNGSA,A,1,,,,,,,,,,,,,99.0,99.0,99.0*1E
"
RECEIVED:  "$GPGSV,3,1,10,27,75,334,,10,72,112,,20,52,059,,16,46,204,*75
"
$xxGSV: message 1 of 3
$xxGSV: sattelites in view: 10
$xxGSV: sat nr 27, elevation: 75, azimuth: 334, snr: 0 dbm
$xxGSV: sat nr 10, elevation: 72, azimuth: 112, snr: 0 dbm
$xxGSV: sat nr 20, elevation: 52, azimuth: 59, snr: 0 dbm
$xxGSV: sat nr 16, elevation: 46, azimuth: 204, snr: 0 dbm
RECEIVED:  "$GLGSV,3,1,10,87,52,055,,72,50,067,,88,48,330,,65,46,147,*60
"
$xxGSV: message 1 of 3
$xxGSV: sattelites in view: 10
$xxGSV: sat nr 87, elevation: 52, azimuth: 55, snr: 0 dbm
$xxGSV: sat nr 72, elevation: 50, azimuth: 67, snr: 0 dbm
$xxGSV: sat nr 88, elevation: 48, azimuth: 330, snr: 0 dbm
$xxGSV: sat nr 65, elevation: 46, azimuth: 147, snr: 0 dbm
RECEIVED:  "$GPGLL,4046.35185,N,01447.42800,E,140822.000,V,N*48
"
$xxGll: raw latitude,longitude and altitude: (40.772533416,14.790467262)
RECEIVED:  "$GPRMC,140823.000,V,4046.35185,N,01447.42800,E,0.0,0.0,120718,,,N*73
"
$xxRMC: raw coordinates and speed: (40.772533416,14.790467262) 0/10
$xxRMC fixed-point coordinates and speed scaled to three decimal places: (4046352,1447428) 0
$xxRMC floating point degree coordinates and speed: (40.772529602,14.790466308) 0.000000000
RECEIVED:  "$GNGSA,A,1,,,,,,,,,,,,,99.0,99.0,99.0*1E
"
RECEIVED:  "$GPGSV,3,1,10,27,75,334,,10,72,112,,20,52,059,,16,46,204,*75
"
$xxGSV: message 1 of 3
$xxGSV: sattelites in view: 10
$xxGSV: sat nr 27, elevation: 75, azimuth: 334, snr: 0 dbm
$xxGSV: sat nr 10, elevation: 72, azimuth: 112, snr: 0 dbm
$xxGSV: sat nr 20, elevation: 52, azimuth: 59, snr: 0 dbm
$xxGSV: sat nr 16, elevation: 46, azimuth: 204, snr: 0 dbm
RECEIVED:  "$GLGSV,3,1,10,87,52,055,,72,50,067,,88,48,330,,65,46,147,*60
"
$xxGSV: message 1 of 3
$xxGSV: sattelites in view: 10
$xxGSV: sat nr 87, elevation: 52, azimuth: 55, snr: 0 dbm
$xxGSV: sat nr 72, elevation: 50, azimuth: 67, snr: 0 dbm
$xxGSV: sat nr 88, elevation: 48, azimuth: 330, snr: 0 dbm
$xxGSV: sat nr 65, elevation: 46, azimuth: 147, snr: 0 dbm
RECEIVED:  "$GPGLL,4046.35185,N,01447.42800,E,140823.000,V,N*49
"
$xxGll: raw latitude,longitude and altitude: (40.772533416,14.790467262)
RECEIVED:  "$GPRMC,140824.000,V,4046.35185,N,01447.42800,E,0.0,0.0,120718,,,N*74
"
$xxRMC: raw coordinates and speed: (40.772533416,14.790467262) 0/10
$xxRMC fixed-point coordinates and speed scaled to three decimal places: (4046352,1447428) 0
$xxRMC floating point degree coordinates and speed: (40.772529602,14.790466308) 0.000000000
RECEIVED:  "$GNGSA,A,1,,,,,,,,,,,,,99.0,99.0,99.0*1E
"
RECEIVED:  "$GPGSV,3,1,10,27,75,334,,10,72,112,,20,52,059,,16,46,204,*75
"
$xxGSV: message 1 of 3
$xxGSV: sattelites in view: 10
$xxGSV: sat nr 27, elevation: 75, azimuth: 334, snr: 0 dbm
$xxGSV: sat nr 10, elevation: 72, azimuth: 112, snr: 0 dbm
$xxGSV: sat nr 20, elevation: 52, azimuth: 59, snr: 0 dbm
$xxGSV: sat nr 16, elevation: 46, azimuth: 204, snr: 0 dbm
RECEIVED:  "$GLGSV,3,1,10,87,52,055,,72,50,067,,88,48,330,,65,46,147,*60
"
$xxGSV: message 1 of 3
$xxGSV: sattelites in view: 10
$xxGSV: sat nr 87, elevation: 52, azimuth: 55, snr: 0 dbm
$xxGSV: sat nr 72, elevation: 50, azimuth: 67, snr: 0 dbm
$xxGSV: sat nr 88, elevation: 48, azimuth: 330, snr: 0 dbm
$xxGSV: sat nr 65, elevation: 46, azimuth: 147, snr: 0 dbm
RECEIVED:  "$GPGLL,4046.35185,N,01447.42800,E,140824.000,V,N*4E
"
$xxGll: raw latitude,longitude and altitude: (40.772533416,14.790467262)
RECEIVED:  "$GPRMC,140825.000,V,4046.35185,N,01447.42800,E,0.0,0.0,120718,,,N*75
"
$xxRMC: raw coordinates and speed: (40.772533416,14.790467262) 0/10
$xxRMC fixed-point coordinates and speed scaled to three decimal places: (4046352,1447428) 0
$xxRMC floating point degree coordinates and speed: (40.772529602,14.790466308) 0.000000000
RECEIVED:  "$GNGSA,A,1,,,,,,,,,,,,,99.0,99.0,99.0*1E
"
RECEIVED:  "$GPGSV,3,1,10,27,75,334,,10,72,112,,20,52,059,,16,46,204,*75
"
$xxGSV: message 1 of 3
$xxGSV: sattelites in view: 10
$xxGSV: sat nr 27, elevation: 75, azimuth: 334, snr: 0 dbm
$xxGSV: sat nr 10, elevation: 72, azimuth: 112, snr: 0 dbm
$xxGSV: sat nr 20, elevation: 52, azimuth: 59, snr: 0 dbm
$xxGSV: sat nr 16, elevation: 46, azimuth: 204, snr: 0 dbm
RECEIVED:  "$GLGSV,3,1,10,87,52,055,,72,50,067,,88,48,330,,65,46,147,*60
"
$xxGSV: message 1 of 3
$xxGSV: sattelites in view: 10
$xxGSV: sat nr 87, elevation: 52, azimuth: 55, snr: 0 dbm
$xxGSV: sat nr 72, elevation: 50, azimuth: 67, snr: 0 dbm
$xxGSV: sat nr 88, elevation: 48, azimuth: 330, snr: 0 dbm
$xxGSV: sat nr 65, elevation: 46, azimuth: 147, snr: 0 dbm
RECEIVED:  "$GPGLL,4046.35185,N,01447.42800,E,140825.000,V,N*4F
"
$xxGll: raw latitude,longitude and altitude: (40.772533416,14.790467262)
RECEIVED:  "$GPRMC,140826.000,V,4046.35185,N,01447.42800,E,0.0,0.0,120718,,,N*76
"
$xxRMC: raw coordinates and speed: (40.772533416,14.790467262) 0/10
$xxRMC fixed-point coordinates and speed scaled to three decimal places: (4046352,1447428) 0
$xxRMC floating point degree coordinates and speed: (40.772529602,14.790466308) 0.000000000
RECEIVED:  "$GNGSA,A,1,,,,,,,,,,,,,99.0,99.0,99.0*1E
"
RECEIVED:  "$GPGSV,3,1,10,27,75,334,,10,72,111,,20,52,059,,16,46,204,*76
"
$xxGSV: message 1 of 3
$xxGSV: sattelites in view: 10
$xxGSV: sat nr 27, elevation: 75, azimuth: 334, snr: 0 dbm
$xxGSV: sat nr 10, elevation: 72, azimuth: 111, snr: 0 dbm
$xxGSV: sat nr 20, elevation: 52, azimuth: 59, snr: 0 dbm
$xxGSV: sat nr 16, elevation: 46, azimuth: 204, snr: 0 dbm
RECEIVED:  "$GLGSV,3,1,10,87,52,055,,72,50,067,,88,48,330,,65,46,147,*60
"
$xxGSV: message 1 of 3
$xxGSV: sattelites in view: 10
$xxGSV: sat nr 87, elevation: 52, azimuth: 55, snr: 0 dbm
$xxGSV: sat nr 72, elevation: 50, azimuth: 67, snr: 0 dbm
$xxGSV: sat nr 88, elevation: 48, azimuth: 330, snr: 0 dbm
$xxGSV: sat nr 65, elevation: 46, azimuth: 147, snr: 0 dbm
RECEIVED:  "$GPGLL,4046.35185,N,01447.42800,E,140826.000,V,N*4C
"
$xxGll: raw latitude,longitude and altitude: (40.772533416,14.790467262)
RECEIVED:  "$GPRMC,140827.000,V,4046.35185,N,01447.42800,E,0.0,0.0,120718,,,N*77
"
$xxRMC: raw coordinates and speed: (40.772533416,14.790467262) 0/10
$xxRMC fixed-point coordinates and speed scaled to three decimal places: (4046352,1447428) 0
$xxRMC floating point degree coordinates and speed: (40.772529602,14.790466308) 0.000000000
RECEIVED:  "$GNGSA,A,1,,,,,,,,,,,,,99.0,99.0,99.0*1E
"
RECEIVED:  "$GPGSV,3,1,10,27,75,334,,10,72,111,,20,52,059,,16,46,204,*76
"
$xxGSV: message 1 of 3
$xxGSV: sattelites in view: 10
$xxGSV: sat nr 27, elevation: 75, azimuth: 334, snr: 0 dbm
$xxGSV: sat nr 10, elevation: 72, azimuth: 111, snr: 0 dbm
$xxGSV: sat nr 20, elevation: 52, azimuth: 59, snr: 0 dbm
$xxGSV: sat nr 16, elevation: 46, azimuth: 204, snr: 0 dbm
RECEIVED:  "$GLGSV,3,1,10,87,52,055,,72,50,067,,88,48,330,,65,46,147,*60
"
$xxGSV: message 1 of 3
$xxGSV: sattelites in view: 10
$xxGSV: sat nr 87, elevation: 52, azimuth: 55, snr: 0 dbm
$xxGSV: sat nr 72, elevation: 50, azimuth: 67, snr: 0 dbm
$xxGSV: sat nr 88, elevation: 48, azimuth: 330, snr: 0 dbm
$xxGSV: sat nr 65, elevation: 46, azimuth: 147, snr: 0 dbm
RECEIVED:  "$GPGLL,4046.35185,N,01447.42800,E,140827.000,V,N*4D
"
$xxGll: raw latitude,longitude and altitude: (40.772533416,14.790467262)
RECEIVED:  "$GPRMC,140828.000,V,4046.35185,N,01447.42800,E,0.0,0.0,120718,,,N*78
"
$xxRMC: raw coordinates and speed: (40.772533416,14.790467262) 0/10
$xxRMC fixed-point coordinates and speed scaled to three decimal places: (4046352,1447428) 0
$xxRMC floating point degree coordinates and speed: (40.772529602,14.790466308) 0.000000000
RECEIVED:  "$GNGSA,A,1,,,,,,,,,,,,,99.0,99.0,99.0*1E
"
RECEIVED:  "$GPGSV,3,1,10,27,75,334,,10,72,111,,20,52,059,,16,46,204,*76
"
$xxGSV: message 1 of 3
$xxGSV: sattelites in view: 10
$xxGSV: sat nr 27, elevation: 75, azimuth: 334, snr: 0 dbm
$xxGSV: sat nr 10, elevation: 72, azimuth: 111, snr: 0 dbm
$xxGSV: sat nr 20, elevation: 52, azimuth: 59, snr: 0 dbm
$xxGSV: sat nr 16, elevation: 46, azimuth: 204, snr: 0 dbm
RECEIVED:  "$GLGSV,3,1,10,87,52,055,,72,50,067,,88,48,330,,65,46,147,*60
"
$xxGSV: message 1 of 3
$xxGSV: sattelites in view: 10
$xxGSV: sat nr 87, elevation: 52, azimuth: 55, snr: 0 dbm
$xxGSV: sat nr 72, elevation: 50, azimuth: 67, snr: 0 dbm
$xxGSV: sat nr 88, elevation: 48, azimuth: 330, snr: 0 dbm
$xxGSV: sat nr 65, elevation: 46, azimuth: 147, snr: 0 dbm
RECEIVED:  "$GPGLL,4046.35185,N,01447.42800,E,140828.000,V,N*42
"
$xxGll: raw latitude,longitude and altitude: (40.772533416,14.790467262)
RECEIVED:  "$GPRMC,140829.000,V,4046.35185,N,01447.42800,E,0.0,0.0,120718,,,N*79
"
$xxRMC: raw coordinates and speed: (40.772533416,14.790467262) 0/10
$xxRMC fixed-point coordinates and speed scaled to three decimal places: (4046352,1447428) 0
$xxRMC floating point degree coordinates and speed: (40.772529602,14.790466308) 0.000000000
RECEIVED:  "$GNGSA,A,1,,,,,,,,,,,,,99.0,99.0,99.0*1E
"
RECEIVED:  "$GPGSV,3,1,10,27,75,334,,10,72,111,,20,52,059,,16,46,204,*76
"
$xxGSV: message 1 of 3
$xxGSV: sattelites in view: 10
$xxGSV: sat nr 27, elevation: 75, azimuth: 334, snr: 0 dbm
$xxGSV: sat nr 10, elevation: 72, azimuth: 111, snr: 0 dbm
$xxGSV: sat nr 20, elevation: 52, azimuth: 59, snr: 0 dbm
$xxGSV: sat nr 16, elevation: 46, azimuth: 204, snr: 0 dbm
RECEIVED:  "$GLGSV,3,1,10,87,52,055,,72,50,067,,88,48,330,,65,46,147,*60
"
$xxGSV: message 1 of 3
$xxGSV: sattelites in view: 10
$xxGSV: sat nr 87, elevation: 52, azimuth: 55, snr: 0 dbm
$xxGSV: sat nr 72, elevation: 50, azimuth: 67, snr: 0 dbm
$xxGSV: sat nr 88, elevation: 48, azimuth: 330, snr: 0 dbm
$xxGSV: sat nr 65, elevation: 46, azimuth: 147, snr: 0 dbm
RECEIVED:  "$GPGLL,4046.35185,N,01447.42800,E,140829.000,V,N*43
"
$xxGll: raw latitude,longitude and altitude: (40.772533416,14.790467262)
RECEIVED:  "$GPRMC,140830.000,V,4046.35185,N,01447.42800,E,0.0,0.0,120718,,,N*71
"
$xxRMC: raw coordinates and speed: (40.772533416,14.790467262) 0/10
$xxRMC fixed-point coordinates and speed scaled to three decimal places: (4046352,1447428) 0
$xxRMC floating point degree coordinates and speed: (40.772529602,14.790466308) 0.000000000
RECEIVED:  "$GNGSA,A,1,,,,,,,,,,,,,99.0,99.0,99.0*1E
"
RECEIVED:  "$GPGSV,3,1,10,27,75,334,,10,72,111,,20,52,059,,16,46,204,*76
"
$xxGSV: message 1 of 3
$xxGSV: sattelites in view: 10
$xxGSV: sat nr 27, elevation: 75, azimuth: 334, snr: 0 dbm
$xxGSV: sat nr 10, elevation: 72, azimuth: 111, snr: 0 dbm
$xxGSV: sat nr 20, elevation: 52, azimuth: 59, snr: 0 dbm
$xxGSV: sat nr 16, elevation: 46, azimuth: 204, snr: 0 dbm
RECEIVED:  "$GLGSV,3,1,10,87,52,055,,72,50,067,,88,48,330,,65,46,147,*60
"
$xxGSV: message 1 of 3
$xxGSV: sattelites in view: 10
$xxGSV: sat nr 87, elevation: 52, azimuth: 55, snr: 0 dbm
$xxGSV: sat nr 72, elevation: 50, azimuth: 67, snr: 0 dbm
$xxGSV: sat nr 88, elevation: 48, azimuth: 330, snr: 0 dbm
$xxGSV: sat nr 65, elevation: 46, azimuth: 147, snr: 0 dbm
RECEIVED:  "$GPGLL,4046.35185,N,01447.42800,E,140830.000,V,N*4B
"
$xxGll: raw latitude,longitude and altitude: (40.772533416,14.790467262)
RECEIVED:  "$GPRMC,140831.000,V,4046.35185,N,01447.42800,E,0.0,0.0,120718,,,N*70
"
$xxRMC: raw coordinates and speed: (40.772533416,14.790467262) 0/10
$xxRMC fixed-point coordinates and speed scaled to three decimal places: (4046352,1447428) 0
$xxRMC floating point degree coordinates and speed: (40.772529602,14.790466308) 0.000000000
RECEIVED:  "$GNGSA,A,1,,,,,,,,,,,,,99.0,99.0,99.0*1E
"
RECEIVED:  "$GPGSV,3,1,10,27,75,334,,10,72,111,,20,52,059,,16,46,204,*76
"
$xxGSV: message 1 of 3
$xxGSV: sattelites in view: 10
$xxGSV: sat nr 27, elevation: 75, azimuth: 334, snr: 0 dbm
$xxGSV: sat nr 10, elevation: 72, azimuth: 111, snr: 0 dbm
$xxGSV: sat nr 20, elevation: 52, azimuth: 59, snr: 0 dbm
$xxGSV: sat nr 16, elevation: 46, azimuth: 204, snr: 0 dbm
RECEIVED:  "$GLGSV,3,1,10,87,52,055,,72,50,067,,88,48,330,,65,46,147,*60
"
$xxGSV: message 1 of 3
$xxGSV: sattelites in view: 10
$xxGSV: sat nr 87, elevation: 52, azimuth: 55, snr: 0 dbm
$xxGSV: sat nr 72, elevation: 50, azimuth: 67, snr: 0 dbm
$xxGSV: sat nr 88, elevation: 48, azimuth: 330, snr: 0 dbm
$xxGSV: sat nr 65, elevation: 46, azimuth: 147, snr: 0 dbm
RECEIVED:  "$GPGLL,4046.35185,N,01447.42800,E,140831.000,V,N*4A
"
$xxGll: raw latitude,longitude and altitude: (40.772533416,14.790467262)
RECEIVED:  "$GPRMC,140832.000,V,4046.35185,N,01447.42800,E,0.0,0.0,120718,,,N*73
"
$xxRMC: raw coordinates and speed: (40.772533416,14.790467262) 0/10
$xxRMC fixed-point coordinates and speed scaled to three decimal places: (4046352,1447428) 0
$xxRMC floating point degree coordinates and speed: (40.772529602,14.790466308) 0.000000000
RECEIVED:  "$GNGSA,A,1,,,,,,,,,,,,,99.0,99.0,99.0*1E
"
RECEIVED:  "$GPGSV,3,1,10,27,75,334,,10,72,111,,20,52,059,,16,46,204,*76
"
$xxGSV: message 1 of 3
$xxGSV: sattelites in view: 10
$xxGSV: sat nr 27, elevation: 75, azimuth: 334, snr: 0 dbm
$xxGSV: sat nr 10, elevation: 72, azimuth: 111, snr: 0 dbm
$xxGSV: sat nr 20, elevation: 52, azimuth: 59, snr: 0 dbm
$xxGSV: sat nr 16, elevation: 46, azimuth: 204, snr: 0 dbm
RECEIVED:  "$GLGSV,3,1,10,87,52,055,,72,50,067,,88,48,330,,65,46,147,*60
"
$xxGSV: message 1 of 3
$xxGSV: sattelites in view: 10
$xxGSV: sat nr 87, elevation: 52, azimuth: 55, snr: 0 dbm
$xxGSV: sat nr 72, elevation: 50, azimuth: 67, snr: 0 dbm
$xxGSV: sat nr 88, elevation: 48, azimuth: 330, snr: 0 dbm
$xxGSV: sat nr 65, elevation: 46, azimuth: 147, snr: 0 dbm
RECEIVED:  "$GPGLL,4046.35185,N,01447.42800,E,140832.000,V,N*49
"
$xxGll: raw latitude,longitude and altitude: (40.772533416,14.790467262)
RECEIVED:  "$GPRMC,140833.000,V,4046.35185,N,01447.42800,E,0.0,0.0,120718,,,N*72
"
$xxRMC: raw coordinates and speed: (40.772533416,14.790467262) 0/10
$xxRMC fixed-point coordinates and speed scaled to three decimal places: (4046352,1447428) 0
$xxRMC floating point degree coordinates and speed: (40.772529602,14.790466308) 0.000000000
RECEIVED:  "$GNGSA,A,1,,,,,,,,,,,,,99.0,99.0,99.0*1E
"
RECEIVED:  "$GPGSV,3,1,10,27,75,334,,10,72,111,,20,52,059,,16,46,204,*76
"
$xxGSV: message 1 of 3
$xxGSV: sattelites in view: 10
$xxGSV: sat nr 27, elevation: 75, azimuth: 334, snr: 0 dbm
$xxGSV: sat nr 10, elevation: 72, azimuth: 111, snr: 0 dbm
$xxGSV: sat nr 20, elevation: 52, azimuth: 59, snr: 0 dbm
$xxGSV: sat nr 16, elevation: 46, azimuth: 204, snr: 0 dbm
RECEIVED:  "$GLGSV,3,1,10,87,52,055,,72,50,067,,88,48,330,,65,46,147,*60
"
$xxGSV: message 1 of 3
$xxGSV: sattelites in view: 10
$xxGSV: sat nr 87, elevation: 52, azimuth: 55, snr: 0 dbm
$xxGSV: sat nr 72, elevation: 50, azimuth: 67, snr: 0 dbm
$xxGSV: sat nr 88, elevation: 48, azimuth: 330, snr: 0 dbm
$xxGSV: sat nr 65, elevation: 46, azimuth: 147, snr: 0 dbm
RECEIVED:  "$GPGLL,4046.35185,N,01447.42800,E,140833.000,V,N*48
"
$xxGll: raw latitude,longitude and altitude: (40.772533416,14.790467262)
RECEIVED:  "$GPRMC,140834.000,V,4046.35185,N,01447.42800,E,0.0,0.0,120718,,,N*75
"
$xxRMC: raw coordinates and speed: (40.772533416,14.790467262) 0/10
$xxRMC fixed-point coordinates and speed scaled to three decimal places: (4046352,1447428) 0
$xxRMC floating point degree coordinates and speed: (40.772529602,14.790466308) 0.000000000
RECEIVED:  "$GNGSA,A,1,,,,,,,,,,,,,99.0,99.0,99.0*1E
"
RECEIVED:  "$GPGSV,3,1,10,27,75,334,,10,72,111,,20,52,059,,16,46,204,*76
"
$xxGSV: message 1 of 3
$xxGSV: sattelites in view: 10
$xxGSV: sat nr 27, elevation: 75, azimuth: 334, snr: 0 dbm
$xxGSV: sat nr 10, elevation: 72, azimuth: 111, snr: 0 dbm
$xxGSV: sat nr 20, elevation: 52, azimuth: 59, snr: 0 dbm
$xxGSV: sat nr 16, elevation: 46, azimuth: 204, snr: 0 dbm
RECEIVED:  "$GLGSV,3,1,10,87,52,055,,72,50,067,,88,48,330,,65,46,147,*60
"
$xxGSV: message 1 of 3
$xxGSV: sattelites in view: 10
